{
"type": "FeatureCollection",
"name": "waypoints",
"crs": { "type": "name", "properties": { "name": "urn:ogc:def:crs:OGC:1.3:CRS84" } },
"features": [
{ "type": "Feature", "properties": { "magvar": 355.0, "name": "SJ", "cmt": "WOOLE,TX,US, Frequency:356", "type": "NDB", "navaid_name": "WOOLE", "navaid_state": "TX", "navaid_country": "US", "navaid_lastupdate": "2021-08-28", "navaid_frequencies": "<navaid:frequency type=\"NAV\" frequency=\"356\" name=\"NAVAID\" ><\/navaid:frequency>", "navaid_magvar": -5.0 }, "geometry": { "type": "Point", "coordinates": [ -100.576231, 31.279736 ] } },
{ "type": "Feature", "properties": { "magvar": 357.3, "name": "CFBPH", "cmt": "CFBPH,TX,US", "type": "CNF", "navaid_name": "CFBPH", "navaid_state": "TX", "navaid_country": "US", "navaid_lastupdate": "2023-01-31", "navaid_magvar": -2.72 }, "geometry": { "type": "Point", "coordinates": [ -97.120456, 32.876733 ] } },
{ "type": "Feature", "properties": { "magvar": 356.0, "name": "AN", "cmt": "ALAMO,TX,US, Frequency:368", "type": "NDB", "navaid_name": "ALAMO", "navaid_state": "TX", "navaid_country": "US", "navaid_lastupdate": "2021-08-28", "navaid_frequencies": "<navaid:frequency type=\"NAV\" frequency=\"368\" name=\"NAVAID\" ><\/navaid:frequency>", "navaid_magvar": -4.0 }, "geometry": { "type": "Point", "coordinates": [ -98.569741, 29.607656 ] } },
{ "type": "Feature", "properties": { "magvar": 354.0, "name": "BKS", "cmt": "BROOKS COUNTY,FALFURRIAS,TX,US, Frequency:353", "type": "NDB", "navaid_name": "BROOKS COUNTY", "navaid_state": "TX", "navaid_country": "US", "navaid_lastupdate": "2009-12-15", "navaid_frequencies": "<navaid:frequency type=\"NAV\" frequency=\"353\" name=\"NAVAID\" ><\/navaid:frequency>", "navaid_magvar": -6.0, "navaid_address": "FALFURRIAS" }, "geometry": { "type": "Point", "coordinates": [ -98.121768, 27.206935 ] } },
{ "type": "Feature", "properties": { "magvar": 350.0, "name": "ABI", "cmt": "ABILENE,TX,US, Frequency:113.70", "type": "VORTAC", "navaid_name": "ABILENE", "navaid_state": "TX", "navaid_country": "US", "navaid_lastupdate": "2018-09-13", "navaid_frequencies": "<navaid:frequency type=\"NAV\" frequency=\"113.70\" name=\"NAVAID\" ><\/navaid:frequency>", "navaid_magvar": -10.0 }, "geometry": { "type": "Point", "coordinates": [ -99.863454, 32.481331 ] } },
{ "type": "Feature", "properties": { "magvar": 355.0, "name": "DYS", "cmt": "DYESS,ABILENE,TX,US, Frequency:133.60", "type": "TACAN", "navaid_name": "DYESS", "navaid_state": "TX", "navaid_country": "US", "navaid_lastupdate": "2017-08-15", "navaid_frequencies": "<navaid:frequency type=\"NAV\" frequency=\"133.60\" name=\"NAVAID\" ><\/navaid:frequency>", "navaid_magvar": -5.0, "navaid_address": "ABILENE" }, "geometry": { "type": "Point", "coordinates": [ -99.85705, 32.418511 ] } },
{ "type": "Feature", "properties": { "magvar": 355.0, "name": "AB", "cmt": "TOMHI,TX,US, Frequency:353", "type": "NDB", "navaid_name": "TOMHI", "navaid_state": "TX", "navaid_country": "US", "navaid_lastupdate": "2018-09-13", "navaid_frequencies": "<navaid:frequency type=\"NAV\" frequency=\"353\" name=\"NAVAID\" ><\/navaid:frequency>", "navaid_magvar": -5.0 }, "geometry": { "type": "Point", "coordinates": [ -99.674228, 32.298863 ] } },
{ "type": "Feature", "properties": { "magvar": 350.0, "name": "TQA", "cmt": "TUSCOLA,ABILENE,TX,US, Frequency:111.60", "type": "VOR\/DME", "navaid_name": "TUSCOLA", "navaid_state": "TX", "navaid_country": "US", "navaid_lastupdate": "2012-04-09", "navaid_frequencies": "<navaid:frequency type=\"NAV\" frequency=\"111.60\" name=\"NAVAID\" ><\/navaid:frequency>", "navaid_magvar": -10.0, "navaid_address": "ABILENE" }, "geometry": { "type": "Point", "coordinates": [ -99.816783, 32.235743 ] } },
{ "type": "Feature", "properties": { "magvar": 354.0, "name": "ALI", "cmt": "ALICE,TX,US, Frequency:114.50", "type": "VOR", "navaid_name": "ALICE", "navaid_state": "TX", "navaid_country": "US", "navaid_lastupdate": "2010-09-26", "navaid_frequencies": "<navaid:frequency type=\"NAV\" frequency=\"114.50\" name=\"NAVAID\" ><\/navaid:frequency>", "navaid_magvar": -6.0 }, "geometry": { "type": "Point", "coordinates": [ -98.021343, 27.739799 ] } },
{ "type": "Feature", "properties": { "magvar": 351.0, "name": "BWR", "cmt": "BREWSTER COUNTY,ALPINE,TX,US, Frequency:412", "type": "NDB", "navaid_name": "BREWSTER COUNTY", "navaid_state": "TX", "navaid_country": "US", "navaid_lastupdate": "2012-02-08", "navaid_frequencies": "<navaid:frequency type=\"NAV\" frequency=\"412\" name=\"NAVAID\" ><\/navaid:frequency>", "navaid_magvar": -9.0, "navaid_address": "ALPINE" }, "geometry": { "type": "Point", "coordinates": [ -103.646814, 30.458204 ] } },
{ "type": "Feature", "properties": { "magvar": 352.0, "name": "AM", "cmt": "PANDE,AMARILLO,TX,US, Frequency:251", "type": "NDB", "navaid_name": "PANDE", "navaid_state": "TX", "navaid_country": "US", "navaid_lastupdate": "2017-12-06", "navaid_frequencies": "<navaid:frequency type=\"NAV\" frequency=\"251\" name=\"NAVAID\" ><\/navaid:frequency>", "navaid_magvar": -8.0, "navaid_address": "AMARILLO" }, "geometry": { "type": "Point", "coordinates": [ -101.805547, 35.146465 ] } },
{ "type": "Feature", "properties": { "magvar": 352.0, "name": "PNH", "cmt": "PANHANDLE,AMARILLO,TX,US, Frequency:116.60", "type": "VORTAC", "navaid_name": "PANHANDLE", "navaid_state": "TX", "navaid_country": "US", "navaid_lastupdate": "2019-10-08", "navaid_frequencies": "<navaid:frequency type=\"NAV\" frequency=\"116.60\" name=\"NAVAID\" ><\/navaid:frequency>", "navaid_magvar": -8.0, "navaid_address": "AMARILLO" }, "geometry": { "type": "Point", "coordinates": [ -101.699031, 35.235062 ] } },
{ "type": "Feature", "properties": { "magvar": 355.0, "name": "LB", "cmt": "FREEP,TX,US, Frequency:263", "type": "NDB", "navaid_name": "FREEP", "navaid_state": "TX", "navaid_country": "US", "navaid_lastupdate": "2017-08-15", "navaid_frequencies": "<navaid:frequency type=\"NAV\" frequency=\"263\" name=\"NAVAID\" ><\/navaid:frequency>", "navaid_magvar": -5.0 }, "geometry": { "type": "Point", "coordinates": [ -95.463173, 29.194337 ] } },
{ "type": "Feature", "properties": { "magvar": 358.0, "name": "AHX", "cmt": "ATHENS,TX,US, Frequency:269", "type": "NDB", "navaid_name": "ATHENS", "navaid_state": "TX", "navaid_country": "US", "navaid_lastupdate": "2019-10-08", "navaid_frequencies": "<navaid:frequency type=\"NAV\" frequency=\"269\" name=\"NAVAID\" ><\/navaid:frequency>", "navaid_magvar": -2.0 }, "geometry": { "type": "Point", "coordinates": [ -95.830242, 32.15932 ] } },
{ "type": "Feature", "properties": { "magvar": 356.0, "name": "ATA", "cmt": "ATLANTA,TX,US, Frequency:347", "type": "NDB", "navaid_name": "ATLANTA", "navaid_state": "TX", "navaid_country": "US", "navaid_lastupdate": "2012-06-01", "navaid_frequencies": "<navaid:frequency type=\"NAV\" frequency=\"347\" name=\"NAVAID\" ><\/navaid:frequency>", "navaid_magvar": -4.0 }, "geometry": { "type": "Point", "coordinates": [ -94.190062, 33.104202 ] } },
{ "type": "Feature", "properties": { "magvar": 354.0, "name": "CWK", "cmt": "CENTEX,AUSTIN,TX,US, Frequency:112.80", "type": "VORTAC", "navaid_name": "CENTEX", "navaid_state": "TX", "navaid_country": "US", "navaid_lastupdate": "2015-08-18", "navaid_frequencies": "<navaid:frequency type=\"NAV\" frequency=\"112.80\" name=\"NAVAID\" ><\/navaid:frequency>", "navaid_magvar": -6.0, "navaid_address": "AUSTIN" }, "geometry": { "type": "Point", "coordinates": [ -97.529847, 30.37855 ] } },
{ "type": "Feature", "properties": { "magvar": 356.0, "name": "BS", "cmt": "CREED,TX,US, Frequency:255", "type": "NDB", "navaid_name": "CREED", "navaid_state": "TX", "navaid_country": "US", "navaid_lastupdate": "2017-12-06", "navaid_frequencies": "<navaid:frequency type=\"NAV\" frequency=\"255\" name=\"NAVAID\" ><\/navaid:frequency>", "navaid_magvar": -4.0 }, "geometry": { "type": "Point", "coordinates": [ -97.67612, 30.08965 ] } },
{ "type": "Feature", "properties": { "magvar": 353.0, "name": "RU", "cmt": "GARYS,TX,US, Frequency:272", "type": "NDB", "navaid_name": "GARYS", "navaid_state": "TX", "navaid_country": "US", "navaid_lastupdate": "2017-12-06", "navaid_frequencies": "<navaid:frequency type=\"NAV\" frequency=\"272\" name=\"NAVAID\" ><\/navaid:frequency>", "navaid_magvar": -7.0 }, "geometry": { "type": "Point", "coordinates": [ -97.949002, 29.958641 ] } },
{ "type": "Feature", "properties": { "magvar": 355.0, "name": "JPA", "cmt": "SANJAC,LA PORTE,TX,US, Frequency:347", "type": "NDB", "navaid_name": "SANJAC", "navaid_state": "TX", "navaid_country": "US", "navaid_lastupdate": "2015-12-11", "navaid_frequencies": "<navaid:frequency type=\"NAV\" frequency=\"347\" name=\"NAVAID\" ><\/navaid:frequency>", "navaid_magvar": -5.0, "navaid_address": "LA PORTE" }, "geometry": { "type": "Point", "coordinates": [ -95.069845, 29.668452 ] } },
{ "type": "Feature", "properties": { "magvar": 355.0, "name": "CPZ", "cmt": "CHAPARROSA RANCH,LA PRYOR,TX,US, Frequency:385", "type": "NDB", "navaid_name": "CHAPARROSA RANCH", "navaid_state": "TX", "navaid_country": "US", "navaid_lastupdate": "2017-02-28", "navaid_frequencies": "<navaid:frequency type=\"NAV\" frequency=\"385\" name=\"NAVAID\" ><\/navaid:frequency>", "navaid_magvar": -5.0, "navaid_address": "LA PRYOR" }, "geometry": { "type": "Point", "coordinates": [ -99.994382, 28.878438 ] } },
{ "type": "Feature", "properties": { "magvar": 351.0, "name": "LKX", "cmt": "LA PRYOR,TX,US, Frequency:223", "type": "NDB", "navaid_name": "LA PRYOR", "navaid_state": "TX", "navaid_country": "US", "navaid_lastupdate": "2017-10-11", "navaid_frequencies": "<navaid:frequency type=\"NAV\" frequency=\"223\" name=\"NAVAID\" ><\/navaid:frequency>", "navaid_magvar": -9.0 }, "geometry": { "type": "Point", "coordinates": [ -99.85478, 28.929971 ] } },
{ "type": "Feature", "properties": { "magvar": 351.0, "name": "LSA", "cmt": "LAMESA,TX,US, Frequency:338", "type": "NDB", "navaid_name": "LAMESA", "navaid_state": "TX", "navaid_country": "US", "navaid_lastupdate": "2012-07-25", "navaid_frequencies": "<navaid:frequency type=\"NAV\" frequency=\"338\" name=\"NAVAID\" ><\/navaid:frequency>", "navaid_magvar": -9.0 }, "geometry": { "type": "Point", "coordinates": [ -101.916082, 32.758433 ] } },
{ "type": "Feature", "properties": { "magvar": 355.0, "name": "AGJ", "cmt": "GOOCH SPRINGS,TX,US, Frequency:112.50", "type": "VORTAC", "navaid_name": "GOOCH SPRINGS", "navaid_state": "TX", "navaid_country": "US", "navaid_lastupdate": "2012-02-08", "navaid_frequencies": "<navaid:frequency type=\"NAV\" frequency=\"112.50\" name=\"NAVAID\" ><\/navaid:frequency>", "navaid_magvar": -5.0 }, "geometry": { "type": "Point", "coordinates": [ -98.141858, 31.185504 ] } },
{ "type": "Feature", "properties": { "magvar": 352.0, "name": "AGH", "cmt": "ARDYTH,TX,US, Frequency:405", "type": "NDB", "navaid_name": "ARDYTH", "navaid_state": "TX", "navaid_country": "US", "navaid_lastupdate": "2012-07-25", "navaid_frequencies": "<navaid:frequency type=\"NAV\" frequency=\"405\" name=\"NAVAID\" ><\/navaid:frequency>", "navaid_magvar": -8.0 }, "geometry": { "type": "Point", "coordinates": [ -99.458077, 27.64233 ] } },
{ "type": "Feature", "properties": { "magvar": 351.0, "name": "LRD", "cmt": "LAREDO,TX,US, Frequency:117.40", "type": "VORTAC", "navaid_name": "LAREDO", "navaid_state": "TX", "navaid_country": "US", "navaid_lastupdate": "2012-07-25", "navaid_frequencies": "<navaid:frequency type=\"NAV\" frequency=\"117.40\" name=\"NAVAID\" ><\/navaid:frequency>", "navaid_magvar": -9.0 }, "geometry": { "type": "Point", "coordinates": [ -99.417679, 27.478737 ] } },
{ "type": "Feature", "properties": { "magvar": 352.0, "name": "LOA", "cmt": "LEONA,TX,US, Frequency:110.80", "type": "VORTAC", "navaid_name": "LEONA", "navaid_state": "TX", "navaid_country": "US", "navaid_lastupdate": "2012-06-01", "navaid_frequencies": "<navaid:frequency type=\"NAV\" frequency=\"110.80\" name=\"NAVAID\" ><\/navaid:frequency>", "navaid_magvar": -8.0 }, "geometry": { "type": "Point", "coordinates": [ -95.967956, 31.124018 ] } },
{ "type": "Feature", "properties": { "magvar": 351.0, "name": "LLN", "cmt": "LEVELLAND,TX,US, Frequency:266", "type": "NDB", "navaid_name": "LEVELLAND", "navaid_state": "TX", "navaid_country": "US", "navaid_lastupdate": "2009-05-10", "navaid_frequencies": "<navaid:frequency type=\"NAV\" frequency=\"266\" name=\"NAVAID\" ><\/navaid:frequency>", "navaid_magvar": -9.0 }, "geometry": { "type": "Point", "coordinates": [ -102.375218, 33.555676 ] } },
{ "type": "Feature", "properties": { "magvar": 353.0, "name": "LIU", "cmt": "LITTLEFIELD,TX,US, Frequency:212", "type": "NDB", "navaid_name": "LITTLEFIELD", "navaid_state": "TX", "navaid_country": "US", "navaid_lastupdate": "2013-06-25", "navaid_frequencies": "<navaid:frequency type=\"NAV\" frequency=\"212\" name=\"NAVAID\" ><\/navaid:frequency>", "navaid_magvar": -7.0 }, "geometry": { "type": "Point", "coordinates": [ -102.386725, 33.9192 ] } },
{ "type": "Feature", "properties": { "magvar": 352.0, "name": "LLO", "cmt": "LLANO,TX,US, Frequency:108.20", "type": "VORTAC", "navaid_name": "LLANO", "navaid_state": "TX", "navaid_country": "US", "navaid_lastupdate": "2012-06-01", "navaid_frequencies": "<navaid:frequency type=\"NAV\" frequency=\"108.20\" name=\"NAVAID\" ><\/navaid:frequency>", "navaid_magvar": -8.0 }, "geometry": { "type": "Point", "coordinates": [ -98.787389, 30.796342 ] } },
{ "type": "Feature", "properties": { "magvar": 353.0, "name": "GGG", "cmt": "GREGG COUNTY,LONGVIEW,TX,US, Frequency:112.90", "type": "VORTAC", "navaid_name": "GREGG COUNTY", "navaid_state": "TX", "navaid_country": "US", "navaid_lastupdate": "2020-01-29", "navaid_frequencies": "<navaid:frequency type=\"NAV\" frequency=\"112.90\" name=\"NAVAID\" ><\/navaid:frequency>", "navaid_magvar": -7.0, "navaid_address": "LONGVIEW" }, "geometry": { "type": "Point", "coordinates": [ -94.753194, 32.417756 ] } },
{ "type": "Feature", "properties": { "magvar": 357.0, "name": "GG", "cmt": "VEELS,TX,US, Frequency:410", "type": "NDB", "navaid_name": "VEELS", "navaid_state": "TX", "navaid_country": "US", "navaid_lastupdate": "2018-09-13", "navaid_frequencies": "<navaid:frequency type=\"NAV\" frequency=\"410\" name=\"NAVAID\" ><\/navaid:frequency>", "navaid_magvar": -3.0 }, "geometry": { "type": "Point", "coordinates": [ -94.797578, 32.455511 ] } },
{ "type": "Feature", "properties": { "magvar": 354.0, "name": "LD", "cmt": "LUBBI,TX,US, Frequency:272", "type": "NDB", "navaid_name": "LUBBI", "navaid_state": "TX", "navaid_country": "US", "navaid_lastupdate": "2017-08-15", "navaid_frequencies": "<navaid:frequency type=\"NAV\" frequency=\"272\" name=\"NAVAID\" ><\/navaid:frequency>", "navaid_magvar": -6.0 }, "geometry": { "type": "Point", "coordinates": [ -101.723107, 33.662689 ] } },
{ "type": "Feature", "properties": { "magvar": 349.0, "name": "LBB", "cmt": "LUBBOCK,TX,US, Frequency:109.20", "type": "VORTAC", "navaid_name": "LUBBOCK", "navaid_state": "TX", "navaid_country": "US", "navaid_lastupdate": "2008-08-12", "navaid_frequencies": "<navaid:frequency type=\"NAV\" frequency=\"109.20\" name=\"NAVAID\" ><\/navaid:frequency>", "navaid_magvar": -11.0 }, "geometry": { "type": "Point", "coordinates": [ -101.91401, 33.704951 ] } },
{ "type": "Feature", "properties": { "magvar": 358.0, "name": "LF", "cmt": "FLUFY,TX,US, Frequency:350", "type": "NDB", "navaid_name": "FLUFY", "navaid_state": "TX", "navaid_country": "US", "navaid_lastupdate": "2018-07-20", "navaid_frequencies": "<navaid:frequency type=\"NAV\" frequency=\"350\" name=\"NAVAID\" ><\/navaid:frequency>", "navaid_magvar": -2.0 }, "geometry": { "type": "Point", "coordinates": [ -94.825161, 31.218878 ] } },
{ "type": "Feature", "properties": { "magvar": 355.0, "name": "LFK", "cmt": "LUFKIN,TX,US, Frequency:112.10", "type": "VORTAC", "navaid_name": "LUFKIN", "navaid_state": "TX", "navaid_country": "US", "navaid_lastupdate": "2018-01-30", "navaid_frequencies": "<navaid:frequency type=\"NAV\" frequency=\"112.10\" name=\"NAVAID\" ><\/navaid:frequency>", "navaid_magvar": -5.0 }, "geometry": { "type": "Point", "coordinates": [ -94.716832, 31.162442 ] } },
{ "type": "Feature", "properties": { "magvar": 350.0, "name": "IMP", "cmt": "MARATHON,TX,US, Frequency:388", "type": "NDB", "navaid_name": "MARATHON", "navaid_state": "TX", "navaid_country": "US", "navaid_lastupdate": "2017-10-11", "navaid_frequencies": "<navaid:frequency type=\"NAV\" frequency=\"388\" name=\"NAVAID\" ><\/navaid:frequency>", "navaid_magvar": -10.0 }, "geometry": { "type": "Point", "coordinates": [ -103.237119, 30.264055 ] } },
{ "type": "Feature", "properties": { "magvar": 349.0, "name": "MRF", "cmt": "MARFA,TX,US, Frequency:115.90", "type": "VOR\/DME", "navaid_name": "MARFA", "navaid_state": "TX", "navaid_country": "US", "navaid_lastupdate": "2012-04-09", "navaid_frequencies": "<navaid:frequency type=\"NAV\" frequency=\"115.90\" name=\"NAVAID\" ><\/navaid:frequency>", "navaid_magvar": -11.0 }, "geometry": { "type": "Point", "coordinates": [ -103.954755, 30.298372 ] } },
{ "type": "Feature", "properties": { "magvar": 351.0, "name": "MFE", "cmt": "MC ALLEN,TX,US, Frequency:117.20", "type": "VOR\/DME", "navaid_name": "MC ALLEN", "navaid_state": "TX", "navaid_country": "US", "navaid_lastupdate": "2018-11-08", "navaid_frequencies": "<navaid:frequency type=\"NAV\" frequency=\"117.20\" name=\"NAVAID\" ><\/navaid:frequency>", "navaid_magvar": -9.0 }, "geometry": { "type": "Point", "coordinates": [ -98.240786, 26.173877 ] } },
{ "type": "Feature", "properties": { "magvar": 356.0, "name": "MF", "cmt": "MISSI,TX,US, Frequency:330", "type": "NDB", "navaid_name": "MISSI", "navaid_state": "TX", "navaid_country": "US", "navaid_lastupdate": "2018-11-08", "navaid_frequencies": "<navaid:frequency type=\"NAV\" frequency=\"330\" name=\"NAVAID\" ><\/navaid:frequency>", "navaid_magvar": -4.0 }, "geometry": { "type": "Point", "coordinates": [ -98.310494, 26.253836 ] } },
{ "type": "Feature", "properties": { "magvar": 357.0, "name": "PQF", "cmt": "MESQUITE,TX,US, Frequency:248", "type": "NDB", "navaid_name": "MESQUITE", "navaid_state": "TX", "navaid_country": "US", "navaid_lastupdate": "2019-02-27", "navaid_frequencies": "<navaid:frequency type=\"NAV\" frequency=\"248\" name=\"NAVAID\" ><\/navaid:frequency>", "navaid_magvar": -3.0 }, "geometry": { "type": "Point", "coordinates": [ -96.52912, 32.809367 ] } },
{ "type": "Feature", "properties": { "magvar": 357.6, "name": "GNL", "cmt": "GROESBECK,TX,US, Frequency:108.8", "type": "DME", "navaid_name": "GROESBECK", "navaid_state": "TX", "navaid_country": "US", "navaid_lastupdate": "2023-02-23", "navaid_frequencies": "<navaid:frequency type=\"NAV\" frequency=\"108.8\" name=\"NAVAID\" ><\/navaid:frequency>", "navaid_magvar": -2.42 }, "geometry": { "type": "Point", "coordinates": [ -96.549089, 31.581477 ] } },
{ "type": "Feature", "properties": { "magvar": 356.0, "name": "LXY", "cmt": "MEXIA,TX,US, Frequency:329", "type": "NDB", "navaid_name": "MEXIA", "navaid_state": "TX", "navaid_country": "US", "navaid_lastupdate": "2012-07-25", "navaid_frequencies": "<navaid:frequency type=\"NAV\" frequency=\"329\" name=\"NAVAID\" ><\/navaid:frequency>", "navaid_magvar": -4.0 }, "geometry": { "type": "Point", "coordinates": [ -96.512258, 31.639584 ] } },
{ "type": "Feature", "properties": { "magvar": 351.0, "name": "MA", "cmt": "FARLY,MIDLAND,TX,US, Frequency:326", "type": "NDB", "navaid_name": "FARLY", "navaid_state": "TX", "navaid_country": "US", "navaid_lastupdate": "2017-08-15", "navaid_frequencies": "<navaid:frequency type=\"NAV\" frequency=\"326\" name=\"NAVAID\" ><\/navaid:frequency>", "navaid_magvar": -9.0, "navaid_address": "MIDLAND" }, "geometry": { "type": "Point", "coordinates": [ -102.325152, 31.988096 ] } },
{ "type": "Feature", "properties": { "magvar": 349.0, "name": "MAF", "cmt": "MIDLAND,TX,US, Frequency:114.80", "type": "VORTAC", "navaid_name": "MIDLAND", "navaid_state": "TX", "navaid_country": "US", "navaid_lastupdate": "2008-08-12", "navaid_frequencies": "<navaid:frequency type=\"NAV\" frequency=\"114.80\" name=\"NAVAID\" ><\/navaid:frequency>", "navaid_magvar": -11.0 }, "geometry": { "type": "Point", "coordinates": [ -102.190389, 32.009345 ] } },
{ "type": "Feature", "properties": { "magvar": 351.0, "name": "MQP", "cmt": "MILLSAP,MINERAL WELLS,TX,US, Frequency:117.70", "type": "VORTAC", "navaid_name": "MILLSAP", "navaid_state": "TX", "navaid_country": "US", "navaid_lastupdate": "2009-12-15", "navaid_frequencies": "<navaid:frequency type=\"NAV\" frequency=\"117.70\" name=\"NAVAID\" ><\/navaid:frequency>", "navaid_magvar": -9.0, "navaid_address": "MINERAL WELLS" }, "geometry": { "type": "Point", "coordinates": [ -97.997442, 32.726181 ] } },
{ "type": "Feature", "properties": { "magvar": 355.0, "name": "GXD", "cmt": "NACOGDOCHES,TX,US, Frequency:391", "type": "NDB", "navaid_name": "NACOGDOCHES", "navaid_state": "TX", "navaid_country": "US", "navaid_lastupdate": "2011-07-03", "navaid_frequencies": "<navaid:frequency type=\"NAV\" frequency=\"391\" name=\"NAVAID\" ><\/navaid:frequency>", "navaid_magvar": -5.0 }, "geometry": { "type": "Point", "coordinates": [ -94.7055, 31.6485 ] } },
{ "type": "Feature", "properties": { "magvar": 355.0, "name": "OC", "cmt": "NADOS,NACOGDOCHES,TX,US, Frequency:253", "type": "NDB", "navaid_name": "NADOS", "navaid_state": "TX", "navaid_country": "US", "navaid_lastupdate": "2011-07-03", "navaid_frequencies": "<navaid:frequency type=\"NAV\" frequency=\"253\" name=\"NAVAID\" ><\/navaid:frequency>", "navaid_magvar": -5.0, "navaid_address": "NACOGDOCHES" }, "geometry": { "type": "Point", "coordinates": [ -94.720194, 31.485556 ] } },
{ "type": "Feature", "properties": { "magvar": 352.0, "name": "TNV", "cmt": "NAVASOTA,TX,US, Frequency:115.90", "type": "VOR\/DME", "navaid_name": "NAVASOTA", "navaid_state": "TX", "navaid_country": "US", "navaid_lastupdate": "2017-01-03", "navaid_frequencies": "<navaid:frequency type=\"NAV\" frequency=\"115.90\" name=\"NAVAID\" ><\/navaid:frequency>", "navaid_magvar": -8.0 }, "geometry": { "type": "Point", "coordinates": [ -96.05824, 30.288526 ] } },
{ "type": "Feature", "properties": { "magvar": 348.0, "name": "EWM", "cmt": "NEWMAN,TX,US, Frequency:112.40", "type": "VORTAC", "navaid_name": "NEWMAN", "navaid_state": "TX", "navaid_country": "US", "navaid_lastupdate": "2020-01-29", "navaid_frequencies": "<navaid:frequency type=\"NAV\" frequency=\"112.40\" name=\"NAVAID\" ><\/navaid:frequency>", "navaid_magvar": -12.0 }, "geometry": { "type": "Point", "coordinates": [ -106.272458, 31.951786 ] } },
{ "type": "Feature", "properties": { "magvar": 355.0, "name": "ORG", "cmt": "ORANGE,TX,US, Frequency:211", "type": "NDB", "navaid_name": "ORANGE", "navaid_state": "TX", "navaid_country": "US", "navaid_lastupdate": "2009-12-15", "navaid_frequencies": "<navaid:frequency type=\"NAV\" frequency=\"211\" name=\"NAVAID\" ><\/navaid:frequency>", "navaid_magvar": -5.0 }, "geometry": { "type": "Point", "coordinates": [ -93.794943, 30.070283 ] } },
{ "type": "Feature", "properties": { "magvar": 355.0, "name": "NOG", "cmt": "ORANGE GROVE,TX,US, Frequency:133.60", "type": "TACAN", "navaid_name": "ORANGE GROVE", "navaid_state": "TX", "navaid_country": "US", "navaid_lastupdate": "2021-08-28", "navaid_frequencies": "<navaid:frequency type=\"NAV\" frequency=\"133.60\" name=\"NAVAID\" ><\/navaid:frequency>", "navaid_magvar": -5.0 }, "geometry": { "type": "Point", "coordinates": [ -98.042627, 27.895325 ] } },
{ "type": "Feature", "properties": { "magvar": 352.0, "name": "PSX", "cmt": "PALACIOS,TX,US, Frequency:117.30", "type": "VORTAC", "navaid_name": "PALACIOS", "navaid_state": "TX", "navaid_country": "US", "navaid_lastupdate": "2022-12-30", "navaid_frequencies": "<navaid:frequency type=\"NAV\" frequency=\"117.30\" name=\"NAVAID\" ><\/navaid:frequency>", "navaid_magvar": -8.0 }, "geometry": { "type": "Point", "coordinates": [ -96.30618, 28.764418 ] } },
{ "type": "Feature", "properties": { "magvar": 356.0, "name": "PSN", "cmt": "PALESTINE,TX,US, Frequency:375", "type": "NDB", "navaid_name": "PALESTINE", "navaid_state": "TX", "navaid_country": "US", "navaid_lastupdate": "2012-07-25", "navaid_frequencies": "<navaid:frequency type=\"NAV\" frequency=\"375\" name=\"NAVAID\" ><\/navaid:frequency>", "navaid_magvar": -4.0 }, "geometry": { "type": "Point", "coordinates": [ -95.700753, 31.780658 ] } },
{ "type": "Feature", "properties": { "magvar": 354.0, "name": "PPA", "cmt": "PAMPA,TX,US, Frequency:368", "type": "NDB", "navaid_name": "PAMPA", "navaid_state": "TX", "navaid_country": "US", "navaid_lastupdate": "2015-06-24", "navaid_frequencies": "<navaid:frequency type=\"NAV\" frequency=\"368\" name=\"NAVAID\" ><\/navaid:frequency>", "navaid_magvar": -6.0 }, "geometry": { "type": "Point", "coordinates": [ -100.991932, 35.612731 ] } },
{ "type": "Feature", "properties": { "magvar": 353.0, "name": "PRX", "cmt": "PARIS,TX,US, Frequency:113.60", "type": "VOR\/DME", "navaid_name": "PARIS", "navaid_state": "TX", "navaid_country": "US", "navaid_lastupdate": "2009-12-15", "navaid_frequencies": "<navaid:frequency type=\"NAV\" frequency=\"113.60\" name=\"NAVAID\" ><\/navaid:frequency>", "navaid_magvar": -7.0 }, "geometry": { "type": "Point", "coordinates": [ -95.44829, 33.542379 ] } },
{ "type": "Feature", "properties": { "magvar": 349.0, "name": "PEQ", "cmt": "PECOS,TX,US, Frequency:116.50", "type": "VOR\/DME", "navaid_name": "PECOS", "navaid_state": "TX", "navaid_country": "US", "navaid_lastupdate": "2022-07-13", "navaid_frequencies": "<navaid:frequency type=\"NAV\" frequency=\"116.50\" name=\"NAVAID\" ><\/navaid:frequency>", "navaid_magvar": -11.0 }, "geometry": { "type": "Point", "coordinates": [ -103.574754, 31.469314 ] } },
{ "type": "Feature", "properties": { "magvar": 353.0, "name": "PYX", "cmt": "PERRYTON,TX,US, Frequency:266", "type": "NDB", "navaid_name": "PERRYTON", "navaid_state": "TX", "navaid_country": "US", "navaid_lastupdate": "2015-06-24", "navaid_frequencies": "<navaid:frequency type=\"NAV\" frequency=\"266\" name=\"NAVAID\" ><\/navaid:frequency>", "navaid_magvar": -7.0 }, "geometry": { "type": "Point", "coordinates": [ -100.747744, 36.412344 ] } },
{ "type": "Feature", "properties": { "magvar": 349.0, "name": "PVW", "cmt": "PLAINVIEW,TX,US, Frequency:112.90", "type": "VOR\/DME", "navaid_name": "PLAINVIEW", "navaid_state": "TX", "navaid_country": "US", "navaid_lastupdate": "2011-01-12", "navaid_frequencies": "<navaid:frequency type=\"NAV\" frequency=\"112.90\" name=\"NAVAID\" ><\/navaid:frequency>", "navaid_magvar": -11.0 }, "geometry": { "type": "Point", "coordinates": [ -101.790187, 34.086193 ] } },
{ "type": "Feature", "properties": { "magvar": 358.4, "name": "UIM", "cmt": "QUITMAN,TX,US, Frequency:114", "type": "DME", "navaid_name": "QUITMAN", "navaid_state": "TX", "navaid_country": "US", "navaid_lastupdate": "2023-02-23", "navaid_frequencies": "<navaid:frequency type=\"NAV\" frequency=\"114\" name=\"NAVAID\" ><\/navaid:frequency>", "navaid_magvar": -1.66 }, "geometry": { "type": "Point", "coordinates": [ -95.366891, 32.880482 ] } },
{ "type": "Feature", "properties": { "magvar": 350.0, "name": "RSG", "cmt": "ROCKSPRINGS,TX,US, Frequency:114.55", "type": "VORTAC", "navaid_name": "ROCKSPRINGS", "navaid_state": "TX", "navaid_country": "US", "navaid_lastupdate": "2021-08-28", "navaid_frequencies": "<navaid:frequency type=\"NAV\" frequency=\"114.55\" name=\"NAVAID\" ><\/navaid:frequency>", "navaid_magvar": -10.0 }, "geometry": { "type": "Point", "coordinates": [ -100.299845, 30.014602 ] } },
{ "type": "Feature", "properties": { "magvar": 353.0, "name": "SBI", "cmt": "SABINE PASS,TX,US, Frequency:115.40", "type": "VOR\/DME", "navaid_name": "SABINE PASS", "navaid_state": "TX", "navaid_country": "US", "navaid_lastupdate": "2009-12-15", "navaid_frequencies": "<navaid:frequency type=\"NAV\" frequency=\"115.40\" name=\"NAVAID\" ><\/navaid:frequency>", "navaid_magvar": -7.0 }, "geometry": { "type": "Point", "coordinates": [ -94.037979, 29.68672 ] } },
{ "type": "Feature", "properties": { "magvar": 348.0, "name": "SFL", "cmt": "SALT FLAT,TX,US, Frequency:113.00", "type": "VORTAC", "navaid_name": "SALT FLAT", "navaid_state": "TX", "navaid_country": "US", "navaid_lastupdate": "2008-08-12", "navaid_frequencies": "<navaid:frequency type=\"NAV\" frequency=\"113.00\" name=\"NAVAID\" ><\/navaid:frequency>", "navaid_magvar": -12.0 }, "geometry": { "type": "Point", "coordinates": [ -105.08681, 31.748116 ] } },
{ "type": "Feature", "properties": { "magvar": 350.0, "name": "SJT", "cmt": "SAN ANGELO,TX,US, Frequency:115.10", "type": "VORTAC", "navaid_name": "SAN ANGELO", "navaid_state": "TX", "navaid_country": "US", "navaid_lastupdate": "2021-08-28", "navaid_frequencies": "<navaid:frequency type=\"NAV\" frequency=\"115.10\" name=\"NAVAID\" ><\/navaid:frequency>", "navaid_magvar": -10.0 }, "geometry": { "type": "Point", "coordinates": [ -100.45487, 31.374956 ] } },
{ "type": "Feature", "properties": { "magvar": 352.0, "name": "UBC", "cmt": "BALLINGER,TX,US, Frequency:239", "type": "NDB", "navaid_name": "BALLINGER", "navaid_state": "TX", "navaid_country": "US", "navaid_lastupdate": "2011-05-06", "navaid_frequencies": "<navaid:frequency type=\"NAV\" frequency=\"239\" name=\"NAVAID\" ><\/navaid:frequency>", "navaid_magvar": -8.0 }, "geometry": { "type": "Point", "coordinates": [ -99.974918, 31.680475 ] } },
{ "type": "Feature", "properties": { "magvar": 354.0, "name": "BYY", "cmt": "BAY CITY,TX,US, Frequency:344", "type": "NDB", "navaid_name": "BAY CITY", "navaid_state": "TX", "navaid_country": "US", "navaid_lastupdate": "2009-12-15", "navaid_frequencies": "<navaid:frequency type=\"NAV\" frequency=\"344\" name=\"NAVAID\" ><\/navaid:frequency>", "navaid_magvar": -6.0 }, "geometry": { "type": "Point", "coordinates": [ -95.859143, 28.972507 ] } },
{ "type": "Feature", "properties": { "magvar": 353.0, "name": "GDE", "cmt": "GOODHUE,BEAUMONT,TX,US, Frequency:368", "type": "NDB", "navaid_name": "GOODHUE", "navaid_state": "TX", "navaid_country": "US", "navaid_lastupdate": "2009-12-15", "navaid_frequencies": "<navaid:frequency type=\"NAV\" frequency=\"368\" name=\"NAVAID\" ><\/navaid:frequency>", "navaid_magvar": -7.0, "navaid_address": "BEAUMONT" }, "geometry": { "type": "Point", "coordinates": [ -94.211036, 30.070472 ] } },
{ "type": "Feature", "properties": { "magvar": 353.0, "name": "BPT", "cmt": "BEAUMONT,BEAUMONT\/PORT ARTHUR,TX,US, Frequency:114.50", "type": "VOR\/DME", "navaid_name": "BEAUMONT", "navaid_state": "TX", "navaid_country": "US", "navaid_lastupdate": "2009-12-15", "navaid_frequencies": "<navaid:frequency type=\"NAV\" frequency=\"114.50\" name=\"NAVAID\" ><\/navaid:frequency>", "navaid_magvar": -7.0, "navaid_address": "BEAUMONT\/PORT ARTHUR" }, "geometry": { "type": "Point", "coordinates": [ -94.016221, 29.946054 ] } },
{ "type": "Feature", "properties": { "magvar": 353.0, "name": "ABG", "cmt": "AMBASSADOR,BIG SANDY,TX,US, Frequency:404", "type": "NDB", "navaid_name": "AMBASSADOR", "navaid_state": "TX", "navaid_country": "US", "navaid_lastupdate": "2012-02-08", "navaid_frequencies": "<navaid:frequency type=\"NAV\" frequency=\"404\" name=\"NAVAID\" ><\/navaid:frequency>", "navaid_magvar": -7.0, "navaid_address": "BIG SANDY" }, "geometry": { "type": "Point", "coordinates": [ -95.113119, 32.585495 ] } },
{ "type": "Feature", "properties": { "magvar": 349.0, "name": "BGS", "cmt": "BIG SPRING,TX,US, Frequency:117.20", "type": "VORTAC", "navaid_name": "BIG SPRING", "navaid_state": "TX", "navaid_country": "US", "navaid_lastupdate": "2021-08-28", "navaid_frequencies": "<navaid:frequency type=\"NAV\" frequency=\"117.20\" name=\"NAVAID\" ><\/navaid:frequency>", "navaid_magvar": -11.0 }, "geometry": { "type": "Point", "coordinates": [ -101.483683, 32.385588 ] } },
{ "type": "Feature", "properties": { "magvar": 354.0, "name": "BYP", "cmt": "BONHAM,TX,US, Frequency:114.60", "type": "VORTAC", "navaid_name": "BONHAM", "navaid_state": "TX", "navaid_country": "US", "navaid_lastupdate": "2014-11-12", "navaid_frequencies": "<navaid:frequency type=\"NAV\" frequency=\"114.60\" name=\"NAVAID\" ><\/navaid:frequency>", "navaid_magvar": -6.0 }, "geometry": { "type": "Point", "coordinates": [ -96.234094, 33.537486 ] } },
{ "type": "Feature", "properties": { "magvar": 349.0, "name": "BGD", "cmt": "BORGER,TX,US, Frequency:108.60", "type": "TACAN", "navaid_name": "BORGER", "navaid_state": "TX", "navaid_country": "US", "navaid_lastupdate": "2022-07-13", "navaid_frequencies": "<navaid:frequency type=\"NAV\" frequency=\"108.60\" name=\"NAVAID\" ><\/navaid:frequency>", "navaid_magvar": -11.0 }, "geometry": { "type": "Point", "coordinates": [ -101.382153, 35.807072 ] } },
{ "type": "Feature", "properties": { "magvar": 354.0, "name": "UKW", "cmt": "BOWIE,TX,US, Frequency:117.15", "type": "VORTAC", "navaid_name": "BOWIE", "navaid_state": "TX", "navaid_country": "US", "navaid_lastupdate": "2018-05-30", "navaid_frequencies": "<navaid:frequency type=\"NAV\" frequency=\"117.15\" name=\"NAVAID\" ><\/navaid:frequency>", "navaid_magvar": -6.0 }, "geometry": { "type": "Point", "coordinates": [ -97.821279, 33.535887 ] } },
{ "type": "Feature", "properties": { "magvar": 356.0, "name": "GMZ", "cmt": "GRINDSTONE MOUNTAIN,BOWIE,TX,US, Frequency:356", "type": "NDB", "navaid_name": "GRINDSTONE MOUNTAIN", "navaid_state": "TX", "navaid_country": "US", "navaid_lastupdate": "2018-07-20", "navaid_frequencies": "<navaid:frequency type=\"NAV\" frequency=\"356\" name=\"NAVAID\" ><\/navaid:frequency>", "navaid_magvar": -4.0, "navaid_address": "BOWIE" }, "geometry": { "type": "Point", "coordinates": [ -97.773719, 33.605362 ] } },
{ "type": "Feature", "properties": { "magvar": 351.0, "name": "BRX", "cmt": "LA FONDA RANCH,BRACKETTVILLE,TX,US, Frequency:269", "type": "NDB", "navaid_name": "LA FONDA RANCH", "navaid_state": "TX", "navaid_country": "US", "navaid_lastupdate": "2017-10-11", "navaid_frequencies": "<navaid:frequency type=\"NAV\" frequency=\"269\" name=\"NAVAID\" ><\/navaid:frequency>", "navaid_magvar": -9.0, "navaid_address": "BRACKETTVILLE" }, "geometry": { "type": "Point", "coordinates": [ -100.623973, 29.20857 ] } },
{ "type": "Feature", "properties": { "magvar": 353.0, "name": "BBD", "cmt": "BRADY,TX,US, Frequency:380", "type": "NDB", "navaid_name": "BRADY", "navaid_state": "TX", "navaid_country": "US", "navaid_lastupdate": "2009-05-10", "navaid_frequencies": "<navaid:frequency type=\"NAV\" frequency=\"380\" name=\"NAVAID\" ><\/navaid:frequency>", "navaid_magvar": -7.0 }, "geometry": { "type": "Point", "coordinates": [ -99.32259, 31.177888 ] } },
{ "type": "Feature", "properties": { "magvar": 351.0, "name": "BRO", "cmt": "BROWNSVILLE,TX,US, Frequency:116.30", "type": "VORTAC", "navaid_name": "BROWNSVILLE", "navaid_state": "TX", "navaid_country": "US", "navaid_lastupdate": "2018-11-08", "navaid_frequencies": "<navaid:frequency type=\"NAV\" frequency=\"116.30\" name=\"NAVAID\" ><\/navaid:frequency>", "navaid_magvar": -9.0 }, "geometry": { "type": "Point", "coordinates": [ -97.375268, 25.924072 ] } },
{ "type": "Feature", "properties": { "magvar": 357.0, "name": "BR", "cmt": "DEPOO,TX,US, Frequency:393", "type": "NDB", "navaid_name": "DEPOO", "navaid_state": "TX", "navaid_country": "US", "navaid_lastupdate": "2018-09-13", "navaid_frequencies": "<navaid:frequency type=\"NAV\" frequency=\"393\" name=\"NAVAID\" ><\/navaid:frequency>", "navaid_magvar": -3.0 }, "geometry": { "type": "Point", "coordinates": [ -97.509098, 25.983663 ] } },
{ "type": "Feature", "properties": { "magvar": 352.0, "name": "BWD", "cmt": "BROWNWOOD,TX,US, Frequency:113.55", "type": "VOR\/DME", "navaid_name": "BROWNWOOD", "navaid_state": "TX", "navaid_country": "US", "navaid_lastupdate": "2022-03-22", "navaid_frequencies": "<navaid:frequency type=\"NAV\" frequency=\"113.55\" name=\"NAVAID\" ><\/navaid:frequency>", "navaid_magvar": -8.0 }, "geometry": { "type": "Point", "coordinates": [ -98.95746, 31.892582 ] } },
{ "type": "Feature", "properties": { "magvar": 353.0, "name": "BMQ", "cmt": "BURNET,TX,US, Frequency:341", "type": "NDB", "navaid_name": "BURNET", "navaid_state": "TX", "navaid_country": "US", "navaid_lastupdate": "2015-08-18", "navaid_frequencies": "<navaid:frequency type=\"NAV\" frequency=\"341\" name=\"NAVAID\" ><\/navaid:frequency>", "navaid_magvar": -7.0 }, "geometry": { "type": "Point", "coordinates": [ -98.236236, 30.740275 ] } },
{ "type": "Feature", "properties": { "magvar": 354.0, "name": "MII", "cmt": "CADDO MILLS,TX,US, Frequency:316", "type": "NDB", "navaid_name": "CADDO MILLS", "navaid_state": "TX", "navaid_country": "US", "navaid_lastupdate": "2017-11-12", "navaid_frequencies": "<navaid:frequency type=\"NAV\" frequency=\"316\" name=\"NAVAID\" ><\/navaid:frequency>", "navaid_magvar": -6.0 }, "geometry": { "type": "Point", "coordinates": [ -96.248203, 33.040271 ] } },
{ "type": "Feature", "properties": { "magvar": 353.0, "name": "DMD", "cmt": "DIMMIT COUNTY,CARRIZO SPRINGS,TX,US, Frequency:343", "type": "NDB", "navaid_name": "DIMMIT COUNTY", "navaid_state": "TX", "navaid_country": "US", "navaid_lastupdate": "2012-02-08", "navaid_frequencies": "<navaid:frequency type=\"NAV\" frequency=\"343\" name=\"NAVAID\" ><\/navaid:frequency>", "navaid_magvar": -7.0, "navaid_address": "CARRIZO SPRINGS" }, "geometry": { "type": "Point", "coordinates": [ -99.827282, 28.522427 ] } },
{ "type": "Feature", "properties": { "magvar": 356.0, "name": "RPF", "cmt": "CARTHAGE,TX,US, Frequency:332", "type": "NDB", "navaid_name": "CARTHAGE", "navaid_state": "TX", "navaid_country": "US", "navaid_lastupdate": "2011-07-03", "navaid_frequencies": "<navaid:frequency type=\"NAV\" frequency=\"332\" name=\"NAVAID\" ><\/navaid:frequency>", "navaid_magvar": -4.0 }, "geometry": { "type": "Point", "coordinates": [ -94.296428, 32.180249 ] } },
{ "type": "Feature", "properties": { "magvar": 354.0, "name": "CQY", "cmt": "CEDAR CREEK,TX,US, Frequency:114.80", "type": "VORTAC", "navaid_name": "CEDAR CREEK", "navaid_state": "TX", "navaid_country": "US", "navaid_lastupdate": "2009-12-15", "navaid_frequencies": "<navaid:frequency type=\"NAV\" frequency=\"114.80\" name=\"NAVAID\" ><\/navaid:frequency>", "navaid_magvar": -6.0 }, "geometry": { "type": "Point", "coordinates": [ -96.218103, 32.185722 ] } },
{ "type": "Feature", "properties": { "magvar": 356.0, "name": "CZJ", "cmt": "AMASON,CENTER,TX,US, Frequency:341", "type": "NDB", "navaid_name": "AMASON", "navaid_state": "TX", "navaid_country": "US", "navaid_lastupdate": "2012-07-25", "navaid_frequencies": "<navaid:frequency type=\"NAV\" frequency=\"341\" name=\"NAVAID\" ><\/navaid:frequency>", "navaid_magvar": -4.0, "navaid_address": "CENTER" }, "geometry": { "type": "Point", "coordinates": [ -94.153784, 31.832877 ] } },
{ "type": "Feature", "properties": { "magvar": 350.0, "name": "CDS", "cmt": "CHILDRESS,TX,US, Frequency:117.00", "type": "VORTAC", "navaid_name": "CHILDRESS", "navaid_state": "TX", "navaid_country": "US", "navaid_lastupdate": "2021-08-28", "navaid_frequencies": "<navaid:frequency type=\"NAV\" frequency=\"117.00\" name=\"NAVAID\" ><\/navaid:frequency>", "navaid_magvar": -10.0 }, "geometry": { "type": "Point", "coordinates": [ -100.289028, 34.369065 ] } },
{ "type": "Feature", "properties": { "magvar": 352.0, "name": "CLL", "cmt": "COLLEGE STATION,TX,US, Frequency:113.30", "type": "VORTAC", "navaid_name": "COLLEGE STATION", "navaid_state": "TX", "navaid_country": "US", "navaid_lastupdate": "2013-04-30", "navaid_frequencies": "<navaid:frequency type=\"NAV\" frequency=\"113.30\" name=\"NAVAID\" ><\/navaid:frequency>", "navaid_magvar": -8.0 }, "geometry": { "type": "Point", "coordinates": [ -96.420681, 30.605002 ] } },
{ "type": "Feature", "properties": { "magvar": 357.0, "name": "CL", "cmt": "ROWDY,TX,US, Frequency:260", "type": "NDB", "navaid_name": "ROWDY", "navaid_state": "TX", "navaid_country": "US", "navaid_lastupdate": "2018-01-30", "navaid_frequencies": "<navaid:frequency type=\"NAV\" frequency=\"260\" name=\"NAVAID\" ><\/navaid:frequency>", "navaid_magvar": -3.0 }, "geometry": { "type": "Point", "coordinates": [ -96.337795, 30.493772 ] } },
{ "type": "Feature", "properties": { "magvar": 351.0, "name": "CRP", "cmt": "CORPUS CHRISTI,TX,US, Frequency:115.50", "type": "VORTAC", "navaid_name": "CORPUS CHRISTI", "navaid_state": "TX", "navaid_country": "US", "navaid_lastupdate": "2010-09-26", "navaid_frequencies": "<navaid:frequency type=\"NAV\" frequency=\"115.50\" name=\"NAVAID\" ><\/navaid:frequency>", "navaid_magvar": -9.0 }, "geometry": { "type": "Point", "coordinates": [ -97.444881, 27.903766 ] } },
{ "type": "Feature", "properties": { "magvar": 357.0, "name": "NGP", "cmt": "TRUAX,TX,US, Frequency:114.00", "type": "TACAN", "navaid_name": "TRUAX", "navaid_state": "TX", "navaid_country": "US", "navaid_lastupdate": "2021-08-28", "navaid_frequencies": "<navaid:frequency type=\"NAV\" frequency=\"114.00\" name=\"NAVAID\" ><\/navaid:frequency>", "navaid_magvar": -3.0 }, "geometry": { "type": "Point", "coordinates": [ -97.294743, 27.686277 ] } },
{ "type": "Feature", "properties": { "magvar": 354.0, "name": "CRS", "cmt": "CORSICANA,TX,US, Frequency:396", "type": "NDB", "navaid_name": "CORSICANA", "navaid_state": "TX", "navaid_country": "US", "navaid_lastupdate": "2009-12-15", "navaid_frequencies": "<navaid:frequency type=\"NAV\" frequency=\"396\" name=\"NAVAID\" ><\/navaid:frequency>", "navaid_magvar": -6.0 }, "geometry": { "type": "Point", "coordinates": [ -96.394618, 32.028417 ] } },
{ "type": "Feature", "properties": { "magvar": 354.0, "name": "CGQ", "cmt": "POWELL,CORSICANA,TX,US, Frequency:344", "type": "NDB", "navaid_name": "POWELL", "navaid_state": "TX", "navaid_country": "US", "navaid_lastupdate": "2009-12-15", "navaid_frequencies": "<navaid:frequency type=\"NAV\" frequency=\"344\" name=\"NAVAID\" ><\/navaid:frequency>", "navaid_magvar": -6.0, "navaid_address": "CORSICANA" }, "geometry": { "type": "Point", "coordinates": [ -96.426299, 32.064135 ] } },
{ "type": "Feature", "properties": { "magvar": 351.0, "name": "COT", "cmt": "COTULLA,TX,US, Frequency:115.80", "type": "VORTAC", "navaid_name": "COTULLA", "navaid_state": "TX", "navaid_country": "US", "navaid_lastupdate": "2012-09-18", "navaid_frequencies": "<navaid:frequency type=\"NAV\" frequency=\"115.80\" name=\"NAVAID\" ><\/navaid:frequency>", "navaid_magvar": -9.0 }, "geometry": { "type": "Point", "coordinates": [ -99.118545, 28.462018 ] } },
{ "type": "Feature", "properties": { "magvar": 351.0, "name": "CZX", "cmt": "CROSBYTON,TX,US, Frequency:332", "type": "NDB", "navaid_name": "CROSBYTON", "navaid_state": "TX", "navaid_country": "US", "navaid_lastupdate": "2014-04-06", "navaid_frequencies": "<navaid:frequency type=\"NAV\" frequency=\"332\" name=\"NAVAID\" ><\/navaid:frequency>", "navaid_magvar": -9.0 }, "geometry": { "type": "Point", "coordinates": [ -101.238871, 33.624145 ] } },
{ "type": "Feature", "properties": { "magvar": 355.0, "name": "DAS", "cmt": "DAISETTA,TX,US, Frequency:116.90", "type": "VORTAC", "navaid_name": "DAISETTA", "navaid_state": "TX", "navaid_country": "US", "navaid_lastupdate": "2018-09-13", "navaid_frequencies": "<navaid:frequency type=\"NAV\" frequency=\"116.90\" name=\"NAVAID\" ><\/navaid:frequency>", "navaid_magvar": -5.0 }, "geometry": { "type": "Point", "coordinates": [ -94.644984, 30.189712 ] } },
{ "type": "Feature", "properties": { "magvar": 348.0, "name": "DHT", "cmt": "DALHART,TX,US, Frequency:112.00", "type": "VORTAC", "navaid_name": "DALHART", "navaid_state": "TX", "navaid_country": "US", "navaid_lastupdate": "2019-10-08", "navaid_frequencies": "<navaid:frequency type=\"NAV\" frequency=\"112.00\" name=\"NAVAID\" ><\/navaid:frequency>", "navaid_magvar": -12.0 }, "geometry": { "type": "Point", "coordinates": [ -102.544642, 36.091457 ] } },
{ "type": "Feature", "properties": { "magvar": 354.0, "name": "CVE", "cmt": "COWBOY,DALLAS,TX,US, Frequency:116.20", "type": "VOR\/DME", "navaid_name": "COWBOY", "navaid_state": "TX", "navaid_country": "US", "navaid_lastupdate": "2021-08-28", "navaid_frequencies": "<navaid:frequency type=\"NAV\" frequency=\"116.20\" name=\"NAVAID\" ><\/navaid:frequency>", "navaid_magvar": -6.0, "navaid_address": "DALLAS" }, "geometry": { "type": "Point", "coordinates": [ -96.903967, 32.89031 ] } },
{ "type": "Feature", "properties": { "magvar": 357.0, "name": "VLY", "cmt": "MELISA,TX,US, Frequency:421", "type": "NDB", "navaid_name": "MELISA", "navaid_state": "TX", "navaid_country": "US", "navaid_lastupdate": "2014-11-12", "navaid_frequencies": "<navaid:frequency type=\"NAV\" frequency=\"421\" name=\"NAVAID\" ><\/navaid:frequency>", "navaid_magvar": -3.0 }, "geometry": { "type": "Point", "coordinates": [ -96.588808, 33.261792 ] } },
{ "type": "Feature", "properties": { "magvar": 354.0, "name": "TTT", "cmt": "MAVERICK,DALLAS-FORT WORTH,TX,US, Frequency:113.10", "type": "VOR\/DME", "navaid_name": "MAVERICK", "navaid_state": "TX", "navaid_country": "US", "navaid_lastupdate": "2021-08-28", "navaid_frequencies": "<navaid:frequency type=\"NAV\" frequency=\"113.10\" name=\"NAVAID\" ><\/navaid:frequency>", "navaid_magvar": -6.0, "navaid_address": "DALLAS-FORT WORTH" }, "geometry": { "type": "Point", "coordinates": [ -97.040503, 32.86916 ] } },
{ "type": "Feature", "properties": { "magvar": 354.0, "name": "FUZ", "cmt": "RANGER,DALLAS-FORT WORTH,TX,US, Frequency:115.70", "type": "VORTAC", "navaid_name": "RANGER", "navaid_state": "TX", "navaid_country": "US", "navaid_lastupdate": "2021-08-28", "navaid_frequencies": "<navaid:frequency type=\"NAV\" frequency=\"115.70\" name=\"NAVAID\" ><\/navaid:frequency>", "navaid_magvar": -6.0, "navaid_address": "DALLAS-FORT WORTH" }, "geometry": { "type": "Point", "coordinates": [ -97.179426, 32.889449 ] } },
{ "type": "Feature", "properties": { "magvar": 352.0, "name": "DR", "cmt": "KOTTI,TX,US, Frequency:335", "type": "NDB", "navaid_name": "KOTTI", "navaid_state": "TX", "navaid_country": "US", "navaid_lastupdate": "2017-11-12", "navaid_frequencies": "<navaid:frequency type=\"NAV\" frequency=\"335\" name=\"NAVAID\" ><\/navaid:frequency>", "navaid_magvar": -8.0 }, "geometry": { "type": "Point", "coordinates": [ -100.992275, 29.442694 ] } },
{ "type": "Feature", "properties": { "magvar": 353.0, "name": "DLF", "cmt": "LAUGHLIN,DEL RIO,TX,US, Frequency:114.40", "type": "VORTAC", "navaid_name": "LAUGHLIN", "navaid_state": "TX", "navaid_country": "US", "navaid_lastupdate": "2017-10-11", "navaid_frequencies": "<navaid:frequency type=\"NAV\" frequency=\"114.40\" name=\"NAVAID\" ><\/navaid:frequency>", "navaid_magvar": -7.0, "navaid_address": "DEL RIO" }, "geometry": { "type": "Point", "coordinates": [ -100.771725, 29.360892 ] } },
{ "type": "Feature", "properties": { "magvar": 356.0, "name": "DT", "cmt": "PINCK,TX,US, Frequency:257", "type": "NDB", "navaid_name": "PINCK", "navaid_state": "TX", "navaid_country": "US", "navaid_lastupdate": "2020-01-29", "navaid_frequencies": "<navaid:frequency type=\"NAV\" frequency=\"257\" name=\"NAVAID\" ><\/navaid:frequency>", "navaid_magvar": -4.0 }, "geometry": { "type": "Point", "coordinates": [ -97.196262, 33.283101 ] } },
{ "type": "Feature", "properties": { "magvar": 353.0, "name": "HHH", "cmt": "DEVINE,TX,US, Frequency:359", "type": "NDB", "navaid_name": "DEVINE", "navaid_state": "TX", "navaid_country": "US", "navaid_lastupdate": "2012-06-01", "navaid_frequencies": "<navaid:frequency type=\"NAV\" frequency=\"359\" name=\"NAVAID\" ><\/navaid:frequency>", "navaid_magvar": -7.0 }, "geometry": { "type": "Point", "coordinates": [ -98.939261, 29.138324 ] } },
{ "type": "Feature", "properties": { "magvar": 357.7, "name": "ELA", "cmt": "EAGLE LAKE,TX,US, Frequency:116.4", "type": "DME", "navaid_name": "EAGLE LAKE", "navaid_state": "TX", "navaid_country": "US", "navaid_lastupdate": "2023-01-31", "navaid_frequencies": "<navaid:frequency type=\"NAV\" frequency=\"116.4\" name=\"NAVAID\" ><\/navaid:frequency>", "navaid_magvar": -2.36 }, "geometry": { "type": "Point", "coordinates": [ -96.317122, 29.662479 ] } },
{ "type": "Feature", "properties": { "magvar": 353.0, "name": "OIP", "cmt": "OLD RIP,EASTLAND,TX,US, Frequency:410", "type": "NDB", "navaid_name": "OLD RIP", "navaid_state": "TX", "navaid_country": "US", "navaid_lastupdate": "2014-04-06", "navaid_frequencies": "<navaid:frequency type=\"NAV\" frequency=\"410\" name=\"NAVAID\" ><\/navaid:frequency>", "navaid_magvar": -7.0, "navaid_address": "EASTLAND" }, "geometry": { "type": "Point", "coordinates": [ -98.81034, 32.398464 ] } },
{ "type": "Feature", "properties": { "magvar": 348.0, "name": "ELP", "cmt": "EL PASO,TX,US, Frequency:115.20", "type": "VORTAC", "navaid_name": "EL PASO", "navaid_state": "TX", "navaid_country": "US", "navaid_lastupdate": "2018-09-13", "navaid_frequencies": "<navaid:frequency type=\"NAV\" frequency=\"115.20\" name=\"NAVAID\" ><\/navaid:frequency>", "navaid_magvar": -12.0 }, "geometry": { "type": "Point", "coordinates": [ -106.281883, 31.81591 ] } },
{ "type": "Feature", "properties": { "magvar": 352.0, "name": "EL", "cmt": "VALTR,EL PASO,TX,US, Frequency:242", "type": "NDB", "navaid_name": "VALTR", "navaid_state": "TX", "navaid_country": "US", "navaid_lastupdate": "2018-09-13", "navaid_frequencies": "<navaid:frequency type=\"NAV\" frequency=\"242\" name=\"NAVAID\" ><\/navaid:frequency>", "navaid_magvar": -8.0, "navaid_address": "EL PASO" }, "geometry": { "type": "Point", "coordinates": [ -106.317766, 31.860296 ] } },
{ "type": "Feature", "properties": { "magvar": 356.0, "name": "KSY", "cmt": "KELLY,SAN ANTONIO,TX,US, Frequency:112.00", "type": "TACAN", "navaid_name": "KELLY", "navaid_state": "TX", "navaid_country": "US", "navaid_lastupdate": "2017-08-15", "navaid_frequencies": "<navaid:frequency type=\"NAV\" frequency=\"112.00\" name=\"NAVAID\" ><\/navaid:frequency>", "navaid_magvar": -4.0, "navaid_address": "SAN ANTONIO" }, "geometry": { "type": "Point", "coordinates": [ -98.581053, 29.391586 ] } },
{ "type": "Feature", "properties": { "magvar": 352.0, "name": "SAT", "cmt": "SAN ANTONIO,TX,US, Frequency:116.80", "type": "VORTAC", "navaid_name": "SAN ANTONIO", "navaid_state": "TX", "navaid_country": "US", "navaid_lastupdate": "2021-08-28", "navaid_frequencies": "<navaid:frequency type=\"NAV\" frequency=\"116.80\" name=\"NAVAID\" ><\/navaid:frequency>", "navaid_magvar": -8.0 }, "geometry": { "type": "Point", "coordinates": [ -98.461316, 29.64403 ] } },
{ "type": "Feature", "properties": { "magvar": 351.0, "name": "SSF", "cmt": "STINSON,SAN ANTONIO,TX,US, Frequency:108.40", "type": "VOR", "navaid_name": "STINSON", "navaid_state": "TX", "navaid_country": "US", "navaid_lastupdate": "2021-08-28", "navaid_frequencies": "<navaid:frequency type=\"NAV\" frequency=\"108.40\" name=\"NAVAID\" ><\/navaid:frequency>", "navaid_magvar": -9.0, "navaid_address": "SAN ANTONIO" }, "geometry": { "type": "Point", "coordinates": [ -98.44348, 29.258383 ] } },
{ "type": "Feature", "properties": { "magvar": 354.0, "name": "JUG", "cmt": "JECCA,SEAGOVILLE,TX,US, Frequency:388", "type": "NDB", "navaid_name": "JECCA", "navaid_state": "TX", "navaid_country": "US", "navaid_lastupdate": "2009-12-15", "navaid_frequencies": "<navaid:frequency type=\"NAV\" frequency=\"388\" name=\"NAVAID\" ><\/navaid:frequency>", "navaid_magvar": -6.0, "navaid_address": "SEAGOVILLE" }, "geometry": { "type": "Point", "coordinates": [ -96.532252, 32.668081 ] } },
{ "type": "Feature", "properties": { "magvar": 351.0, "name": "GNC", "cmt": "GAINES COUNTY,SEMINOLE,TX,US, Frequency:344", "type": "NDB", "navaid_name": "GAINES COUNTY", "navaid_state": "TX", "navaid_country": "US", "navaid_lastupdate": "2009-05-10", "navaid_frequencies": "<navaid:frequency type=\"NAV\" frequency=\"344\" name=\"NAVAID\" ><\/navaid:frequency>", "navaid_magvar": -9.0, "navaid_address": "SEMINOLE" }, "geometry": { "type": "Point", "coordinates": [ -102.645723, 32.671684 ] } },
{ "type": "Feature", "properties": { "magvar": 354.0, "name": "DNI", "cmt": "DENISON,SHERMAN DENISON,TX,US, Frequency:341", "type": "NDB", "navaid_name": "DENISON", "navaid_state": "TX", "navaid_country": "US", "navaid_lastupdate": "2017-11-12", "navaid_frequencies": "<navaid:frequency type=\"NAV\" frequency=\"341\" name=\"NAVAID\" ><\/navaid:frequency>", "navaid_magvar": -6.0, "navaid_address": "SHERMAN DENISON" }, "geometry": { "type": "Point", "coordinates": [ -96.668893, 33.826499 ] } },
{ "type": "Feature", "properties": { "magvar": 353.0, "name": "MHF", "cmt": "TRINITY,SMITH POINT,TX,US, Frequency:114.75", "type": "VOR\/DME", "navaid_name": "TRINITY", "navaid_state": "TX", "navaid_country": "US", "navaid_lastupdate": "2023-02-23", "navaid_frequencies": "<navaid:frequency type=\"NAV\" frequency=\"114.75\" name=\"NAVAID\" ><\/navaid:frequency>", "navaid_magvar": -7.0, "navaid_address": "SMITH POINT" }, "geometry": { "type": "Point", "coordinates": [ -94.747513, 29.546343 ] } },
{ "type": "Feature", "properties": { "magvar": 352.0, "name": "SDR", "cmt": "SNYDER,TX,US, Frequency:359", "type": "NDB", "navaid_name": "SNYDER", "navaid_state": "TX", "navaid_country": "US", "navaid_lastupdate": "2014-04-06", "navaid_frequencies": "<navaid:frequency type=\"NAV\" frequency=\"359\" name=\"NAVAID\" ><\/navaid:frequency>", "navaid_magvar": -8.0 }, "geometry": { "type": "Point", "coordinates": [ -100.946128, 32.701403 ] } },
{ "type": "Feature", "properties": { "magvar": 352.0, "name": "SOA", "cmt": "SONORA,TX,US, Frequency:371", "type": "NDB", "navaid_name": "SONORA", "navaid_state": "TX", "navaid_country": "US", "navaid_lastupdate": "2009-12-15", "navaid_frequencies": "<navaid:frequency type=\"NAV\" frequency=\"371\" name=\"NAVAID\" ><\/navaid:frequency>", "navaid_magvar": -8.0 }, "geometry": { "type": "Point", "coordinates": [ -100.646933, 30.581806 ] } },
{ "type": "Feature", "properties": { "magvar": 352.0, "name": "PFO", "cmt": "SPOFFORD,TX,US, Frequency:356", "type": "NDB", "navaid_name": "SPOFFORD", "navaid_state": "TX", "navaid_country": "US", "navaid_lastupdate": "2017-10-11", "navaid_frequencies": "<navaid:frequency type=\"NAV\" frequency=\"356\" name=\"NAVAID\" ><\/navaid:frequency>", "navaid_magvar": -8.0 }, "geometry": { "type": "Point", "coordinates": [ -100.427577, 29.14524 ] } },
{ "type": "Feature", "properties": { "magvar": 352.0, "name": "STV", "cmt": "STONEWALL,TX,US, Frequency:113.80", "type": "VORTAC", "navaid_name": "STONEWALL", "navaid_state": "TX", "navaid_country": "US", "navaid_lastupdate": "2009-12-15", "navaid_frequencies": "<navaid:frequency type=\"NAV\" frequency=\"113.80\" name=\"NAVAID\" ><\/navaid:frequency>", "navaid_magvar": -8.0 }, "geometry": { "type": "Point", "coordinates": [ -98.705755, 30.206759 ] } },
{ "type": "Feature", "properties": { "magvar": 358.3, "name": "SLR", "cmt": "SULPHUR SPRINGS,TX,US, Frequency:109", "type": "DME", "navaid_name": "SULPHUR SPRINGS", "navaid_state": "TX", "navaid_country": "US", "navaid_lastupdate": "2023-02-23", "navaid_frequencies": "<navaid:frequency type=\"NAV\" frequency=\"109\" name=\"NAVAID\" ><\/navaid:frequency>", "navaid_magvar": -1.76 }, "geometry": { "type": "Point", "coordinates": [ -95.542778, 33.198611 ] } },
{ "type": "Feature", "properties": { "magvar": 352.0, "name": "SWW", "cmt": "SWEETWATER,TX,US, Frequency:275", "type": "NDB", "navaid_name": "SWEETWATER", "navaid_state": "TX", "navaid_country": "US", "navaid_lastupdate": "2014-04-06", "navaid_frequencies": "<navaid:frequency type=\"NAV\" frequency=\"275\" name=\"NAVAID\" ><\/navaid:frequency>", "navaid_magvar": -8.0 }, "geometry": { "type": "Point", "coordinates": [ -100.465592, 32.461626 ] } },
{ "type": "Feature", "properties": { "magvar": 357.1, "name": "TPL", "cmt": "TEMPLE,TX,US, Frequency:110.4", "type": "DME", "navaid_name": "TEMPLE", "navaid_state": "TX", "navaid_country": "US", "navaid_lastupdate": "2023-02-23", "navaid_frequencies": "<navaid:frequency type=\"NAV\" frequency=\"110.4\" name=\"NAVAID\" ><\/navaid:frequency>", "navaid_magvar": -2.93 }, "geometry": { "type": "Point", "coordinates": [ -97.424967, 31.209336 ] } },
{ "type": "Feature", "properties": { "magvar": 354.0, "name": "AVZ", "cmt": "TRAVIS,TERRELL,TX,US, Frequency:260", "type": "NDB", "navaid_name": "TRAVIS", "navaid_state": "TX", "navaid_country": "US", "navaid_lastupdate": "2009-12-15", "navaid_frequencies": "<navaid:frequency type=\"NAV\" frequency=\"260\" name=\"NAVAID\" ><\/navaid:frequency>", "navaid_magvar": -6.0, "navaid_address": "TERRELL" }, "geometry": { "type": "Point", "coordinates": [ -96.249144, 32.760128 ] } },
{ "type": "Feature", "properties": { "magvar": 349.0, "name": "TXO", "cmt": "TEXICO,TX,US, Frequency:112.20", "type": "VORTAC", "navaid_name": "TEXICO", "navaid_state": "TX", "navaid_country": "US", "navaid_lastupdate": "2011-12-15", "navaid_frequencies": "<navaid:frequency type=\"NAV\" frequency=\"112.20\" name=\"NAVAID\" ><\/navaid:frequency>", "navaid_magvar": -11.0 }, "geometry": { "type": "Point", "coordinates": [ -102.839663, 34.495127 ] } },
{ "type": "Feature", "properties": { "magvar": 352.0, "name": "THX", "cmt": "THREE RIVERS,TX,US, Frequency:111.40", "type": "VORTAC", "navaid_name": "THREE RIVERS", "navaid_state": "TX", "navaid_country": "US", "navaid_lastupdate": "2012-07-25", "navaid_frequencies": "<navaid:frequency type=\"NAV\" frequency=\"111.40\" name=\"NAVAID\" ><\/navaid:frequency>", "navaid_magvar": -8.0 }, "geometry": { "type": "Point", "coordinates": [ -98.150467, 28.504997 ] } },
{ "type": "Feature", "properties": { "magvar": 357.0, "name": "TY", "cmt": "INDOO,TX,US, Frequency:320", "type": "NDB", "navaid_name": "INDOO", "navaid_state": "TX", "navaid_country": "US", "navaid_lastupdate": "2017-10-11", "navaid_frequencies": "<navaid:frequency type=\"NAV\" frequency=\"320\" name=\"NAVAID\" ><\/navaid:frequency>", "navaid_magvar": -3.0 }, "geometry": { "type": "Point", "coordinates": [ -95.469439, 32.41554 ] } },
{ "type": "Feature", "properties": { "magvar": 354.0, "name": "TYR", "cmt": "TYLER,TX,US, Frequency:114.20", "type": "VOR\/DME", "navaid_name": "TYLER", "navaid_state": "TX", "navaid_country": "US", "navaid_lastupdate": "2021-12-01", "navaid_frequencies": "<navaid:frequency type=\"NAV\" frequency=\"114.20\" name=\"NAVAID\" ><\/navaid:frequency>", "navaid_magvar": -6.0 }, "geometry": { "type": "Point", "coordinates": [ -95.403465, 32.355868 ] } },
{ "type": "Feature", "properties": { "magvar": 355.0, "name": "DHK", "cmt": "RANDOLPH,UNIVERSAL CITY,TX,US, Frequency:109.90", "type": "TACAN", "navaid_name": "RANDOLPH", "navaid_state": "TX", "navaid_country": "US", "navaid_lastupdate": "2021-08-28", "navaid_frequencies": "<navaid:frequency type=\"NAV\" frequency=\"109.90\" name=\"NAVAID\" ><\/navaid:frequency>", "navaid_magvar": -5.0, "navaid_address": "UNIVERSAL CITY" }, "geometry": { "type": "Point", "coordinates": [ -98.267814, 29.53695 ] } },
{ "type": "Feature", "properties": { "magvar": 355.0, "name": "RND", "cmt": "RANDOLPH,UNIVERSAL CITY,TX,US, Frequency:112.30", "type": "VORTAC", "navaid_name": "RANDOLPH", "navaid_state": "TX", "navaid_country": "US", "navaid_lastupdate": "2021-08-28", "navaid_frequencies": "<navaid:frequency type=\"NAV\" frequency=\"112.30\" name=\"NAVAID\" ><\/navaid:frequency>", "navaid_magvar": -5.0, "navaid_address": "UNIVERSAL CITY" }, "geometry": { "type": "Point", "coordinates": [ -98.285175, 29.519169 ] } },
{ "type": "Feature", "properties": { "magvar": 353.0, "name": "UVA", "cmt": "UVALDE,TX,US, Frequency:281", "type": "NDB", "navaid_name": "UVALDE", "navaid_state": "TX", "navaid_country": "US", "navaid_lastupdate": "2009-12-15", "navaid_frequencies": "<navaid:frequency type=\"NAV\" frequency=\"281\" name=\"NAVAID\" ><\/navaid:frequency>", "navaid_magvar": -7.0 }, "geometry": { "type": "Point", "coordinates": [ -99.7257, 29.177733 ] } },
{ "type": "Feature", "properties": { "magvar": 350.0, "name": "VHN", "cmt": "VAN HORN,TX,US, Frequency:233", "type": "NDB", "navaid_name": "VAN HORN", "navaid_state": "TX", "navaid_country": "US", "navaid_lastupdate": "2012-07-25", "navaid_frequencies": "<navaid:frequency type=\"NAV\" frequency=\"233\" name=\"NAVAID\" ><\/navaid:frequency>", "navaid_magvar": -10.0 }, "geometry": { "type": "Point", "coordinates": [ -104.786738, 31.061704 ] } },
{ "type": "Feature", "properties": { "magvar": 354.0, "name": "VCT", "cmt": "VICTORIA,TX,US, Frequency:109.00", "type": "VOR\/DME", "navaid_name": "VICTORIA", "navaid_state": "TX", "navaid_country": "US", "navaid_lastupdate": "2021-08-28", "navaid_frequencies": "<navaid:frequency type=\"NAV\" frequency=\"109.00\" name=\"NAVAID\" ><\/navaid:frequency>", "navaid_magvar": -6.0 }, "geometry": { "type": "Point", "coordinates": [ -96.978935, 28.900318 ] } },
{ "type": "Feature", "properties": { "magvar": 357.0, "name": "ROB", "cmt": "ROBINSON,WACO,TX,US, Frequency:400", "type": "NDB", "navaid_name": "ROBINSON", "navaid_state": "TX", "navaid_country": "US", "navaid_lastupdate": "2019-10-08", "navaid_frequencies": "<navaid:frequency type=\"NAV\" frequency=\"400\" name=\"NAVAID\" ><\/navaid:frequency>", "navaid_magvar": -3.0, "navaid_address": "WACO" }, "geometry": { "type": "Point", "coordinates": [ -97.069584, 31.503806 ] } },
{ "type": "Feature", "properties": { "magvar": 351.0, "name": "ACT", "cmt": "WACO,TX,US, Frequency:115.30", "type": "VORTAC", "navaid_name": "WACO", "navaid_state": "TX", "navaid_country": "US", "navaid_lastupdate": "2018-09-13", "navaid_frequencies": "<navaid:frequency type=\"NAV\" frequency=\"115.30\" name=\"NAVAID\" ><\/navaid:frequency>", "navaid_magvar": -9.0 }, "geometry": { "type": "Point", "coordinates": [ -97.269014, 31.662231 ] } },
{ "type": "Feature", "properties": { "magvar": 357.0, "name": "ARM", "cmt": "WHARTON,TX,US, Frequency:245", "type": "NDB", "navaid_name": "WHARTON", "navaid_state": "TX", "navaid_country": "US", "navaid_lastupdate": "2018-07-20", "navaid_frequencies": "<navaid:frequency type=\"NAV\" frequency=\"245\" name=\"NAVAID\" ><\/navaid:frequency>", "navaid_magvar": -3.0 }, "geometry": { "type": "Point", "coordinates": [ -96.152026, 29.254645 ] } },
{ "type": "Feature", "properties": { "magvar": 355.0, "name": "ICF", "cmt": "MADISON,TX,US, Frequency:296", "type": "NDB", "navaid_name": "MADISON", "navaid_state": "TX", "navaid_country": "US", "navaid_lastupdate": "2014-04-06", "navaid_frequencies": "<navaid:frequency type=\"NAV\" frequency=\"296\" name=\"NAVAID\" ><\/navaid:frequency>", "navaid_magvar": -5.0 }, "geometry": { "type": "Point", "coordinates": [ -98.454667, 33.910728 ] } },
{ "type": "Feature", "properties": { "magvar": 355.0, "name": "SKB", "cmt": "SCOTLAND,WICHITA FALLS,TX,US, Frequency:344", "type": "NDB", "navaid_name": "SCOTLAND", "navaid_state": "TX", "navaid_country": "US", "navaid_lastupdate": "2017-01-03", "navaid_frequencies": "<navaid:frequency type=\"NAV\" frequency=\"344\" name=\"NAVAID\" ><\/navaid:frequency>", "navaid_magvar": -5.0, "navaid_address": "WICHITA FALLS" }, "geometry": { "type": "Point", "coordinates": [ -98.488162, 33.782274 ] } },
{ "type": "Feature", "properties": { "magvar": 355.0, "name": "SHP", "cmt": "SHEPPARD,WICHITA FALLS,TX,US, Frequency:110.80", "type": "TACAN", "navaid_name": "SHEPPARD", "navaid_state": "TX", "navaid_country": "US", "navaid_lastupdate": "2021-08-28", "navaid_frequencies": "<navaid:frequency type=\"NAV\" frequency=\"110.80\" name=\"NAVAID\" ><\/navaid:frequency>", "navaid_magvar": -5.0, "navaid_address": "WICHITA FALLS" }, "geometry": { "type": "Point", "coordinates": [ -98.487672, 33.982711 ] } },
{ "type": "Feature", "properties": { "magvar": 350.0, "name": "SPS", "cmt": "WICHITA FALLS,TX,US, Frequency:112.70", "type": "VORTAC", "navaid_name": "WICHITA FALLS", "navaid_state": "TX", "navaid_country": "US", "navaid_lastupdate": "2012-11-13", "navaid_frequencies": "<navaid:frequency type=\"NAV\" frequency=\"112.70\" name=\"NAVAID\" ><\/navaid:frequency>", "navaid_magvar": -10.0 }, "geometry": { "type": "Point", "coordinates": [ -98.593472, 33.987288 ] } },
{ "type": "Feature", "properties": { "magvar": 349.0, "name": "INK", "cmt": "WINK,TX,US, Frequency:112.10", "type": "VORTAC", "navaid_name": "WINK", "navaid_state": "TX", "navaid_country": "US", "navaid_lastupdate": "2008-08-12", "navaid_frequencies": "<navaid:frequency type=\"NAV\" frequency=\"112.10\" name=\"NAVAID\" ><\/navaid:frequency>", "navaid_magvar": -11.0 }, "geometry": { "type": "Point", "coordinates": [ -103.243777, 31.874763 ] } },
{ "type": "Feature", "properties": { "magvar": 354.0, "name": "OKT", "cmt": "YOAKUM,TX,US, Frequency:350", "type": "NDB", "navaid_name": "YOAKUM", "navaid_state": "TX", "navaid_country": "US", "navaid_lastupdate": "2012-07-25", "navaid_frequencies": "<navaid:frequency type=\"NAV\" frequency=\"350\" name=\"NAVAID\" ><\/navaid:frequency>", "navaid_magvar": -6.0 }, "geometry": { "type": "Point", "coordinates": [ -97.138685, 29.312019 ] } },
{ "type": "Feature", "properties": { "magvar": 353.0, "name": "HLR", "cmt": "HOOD,FORT HOOD(KILLEEN),TX,US, Frequency:347", "type": "NDB", "navaid_name": "HOOD", "navaid_state": "TX", "navaid_country": "US", "navaid_lastupdate": "2018-09-13", "navaid_frequencies": "<navaid:frequency type=\"NAV\" frequency=\"347\" name=\"NAVAID\" ><\/navaid:frequency>", "navaid_magvar": -7.0, "navaid_address": "FORT HOOD(KILLEEN)" }, "geometry": { "type": "Point", "coordinates": [ -97.710346, 31.129202 ] } },
{ "type": "Feature", "properties": { "magvar": 356.0, "name": "GR", "cmt": "STARN,FORT HOOD(KILLEEN),TX,US, Frequency:323", "type": "NDB", "navaid_name": "STARN", "navaid_state": "TX", "navaid_country": "US", "navaid_lastupdate": "2018-09-13", "navaid_frequencies": "<navaid:frequency type=\"NAV\" frequency=\"323\" name=\"NAVAID\" ><\/navaid:frequency>", "navaid_magvar": -4.0, "navaid_address": "FORT HOOD(KILLEEN)" }, "geometry": { "type": "Point", "coordinates": [ -97.878228, 31.167841 ] } },
{ "type": "Feature", "properties": { "magvar": 353.0, "name": "GRK", "cmt": "GRAY,FORT HOOD\/KILLEEN,TX,US, Frequency:111.80", "type": "VOR\/DME", "navaid_name": "GRAY", "navaid_state": "TX", "navaid_country": "US", "navaid_lastupdate": "2018-11-08", "navaid_frequencies": "<navaid:frequency type=\"NAV\" frequency=\"111.80\" name=\"NAVAID\" ><\/navaid:frequency>", "navaid_magvar": -7.0, "navaid_address": "FORT HOOD\/KILLEEN" }, "geometry": { "type": "Point", "coordinates": [ -97.813791, 31.032886 ] } },
{ "type": "Feature", "properties": { "magvar": 349.0, "name": "FST", "cmt": "FORT STOCKTON,TX,US, Frequency:116.90", "type": "VORTAC", "navaid_name": "FORT STOCKTON", "navaid_state": "TX", "navaid_country": "US", "navaid_lastupdate": "2021-11-04", "navaid_frequencies": "<navaid:frequency type=\"NAV\" frequency=\"116.90\" name=\"NAVAID\" ><\/navaid:frequency>", "navaid_magvar": -11.0 }, "geometry": { "type": "Point", "coordinates": [ -102.975711, 30.952107 ] } },
{ "type": "Feature", "properties": { "magvar": 352.0, "name": "FT", "cmt": "MUFIN,TX,US, Frequency:365", "type": "NDB", "navaid_name": "MUFIN", "navaid_state": "TX", "navaid_country": "US", "navaid_lastupdate": "2017-11-12", "navaid_frequencies": "<navaid:frequency type=\"NAV\" frequency=\"365\" name=\"NAVAID\" ><\/navaid:frequency>", "navaid_magvar": -8.0 }, "geometry": { "type": "Point", "coordinates": [ -97.373384, 32.893015 ] } },
{ "type": "Feature", "properties": { "magvar": 356.0, "name": "NFW", "cmt": "NAS JRB FORT WORTH,FORT WORTH,TX,US, Frequency:108.70", "type": "TACAN", "navaid_name": "NAS JRB FORT WORTH", "navaid_state": "TX", "navaid_country": "US", "navaid_lastupdate": "2017-08-15", "navaid_frequencies": "<navaid:frequency type=\"NAV\" frequency=\"108.70\" name=\"NAVAID\" ><\/navaid:frequency>", "navaid_magvar": -4.0, "navaid_address": "FORT WORTH" }, "geometry": { "type": "Point", "coordinates": [ -97.439303, 32.771391 ] } },
{ "type": "Feature", "properties": { "magvar": 354.0, "name": "FZT", "cmt": "FRANKSTON,TX,US, Frequency:111.40", "type": "VOR\/DME", "navaid_name": "FRANKSTON", "navaid_state": "TX", "navaid_country": "US", "navaid_lastupdate": "2011-07-03", "navaid_frequencies": "<navaid:frequency type=\"NAV\" frequency=\"111.40\" name=\"NAVAID\" ><\/navaid:frequency>", "navaid_magvar": -6.0 }, "geometry": { "type": "Point", "coordinates": [ -95.530791, 32.074604 ] } },
{ "type": "Feature", "properties": { "magvar": 352.0, "name": "GLS", "cmt": "GALVESTON,TX,US, Frequency:206", "type": "NDB", "navaid_name": "GALVESTON", "navaid_state": "TX", "navaid_country": "US", "navaid_lastupdate": "2009-12-15", "navaid_frequencies": "<navaid:frequency type=\"NAV\" frequency=\"206\" name=\"NAVAID\" ><\/navaid:frequency>", "navaid_magvar": -8.0 }, "geometry": { "type": "Point", "coordinates": [ -94.756225, 29.333958 ] } },
{ "type": "Feature", "properties": { "magvar": 354.0, "name": "VUH", "cmt": "SCHOLES,GALVESTON,TX,US, Frequency:113.00", "type": "VOR\/DME", "navaid_name": "SCHOLES", "navaid_state": "TX", "navaid_country": "US", "navaid_lastupdate": "2020-01-29", "navaid_frequencies": "<navaid:frequency type=\"NAV\" frequency=\"113.00\" name=\"NAVAID\" ><\/navaid:frequency>", "navaid_magvar": -6.0, "navaid_address": "GALVESTON" }, "geometry": { "type": "Point", "coordinates": [ -94.867725, 29.269334 ] } },
{ "type": "Feature", "properties": { "magvar": 354.0, "name": "GUO", "cmt": "GEORGETOWN,TX,US, Frequency:332", "type": "NDB", "navaid_name": "GEORGETOWN", "navaid_state": "TX", "navaid_country": "US", "navaid_lastupdate": "2015-08-18", "navaid_frequencies": "<navaid:frequency type=\"NAV\" frequency=\"332\" name=\"NAVAID\" ><\/navaid:frequency>", "navaid_magvar": -6.0 }, "geometry": { "type": "Point", "coordinates": [ -97.679909, 30.684394 ] } },
{ "type": "Feature", "properties": { "magvar": 354.0, "name": "JEN", "cmt": "GLEN ROSE,TX,US, Frequency:115.00", "type": "TACAN", "navaid_name": "GLEN ROSE", "navaid_state": "TX", "navaid_country": "US", "navaid_lastupdate": "2021-08-28", "navaid_frequencies": "<navaid:frequency type=\"NAV\" frequency=\"115.00\" name=\"NAVAID\" ><\/navaid:frequency>", "navaid_magvar": -6.0 }, "geometry": { "type": "Point", "coordinates": [ -97.877681, 32.159589 ] } },
{ "type": "Feature", "properties": { "magvar": 353.0, "name": "GHX", "cmt": "GRAHAM,TX,US, Frequency:371", "type": "NDB", "navaid_name": "GRAHAM", "navaid_state": "TX", "navaid_country": "US", "navaid_lastupdate": "2014-04-06", "navaid_frequencies": "<navaid:frequency type=\"NAV\" frequency=\"371\" name=\"NAVAID\" ><\/navaid:frequency>", "navaid_magvar": -7.0 }, "geometry": { "type": "Point", "coordinates": [ -98.49661, 33.165864 ] } },
{ "type": "Feature", "properties": { "magvar": 355.0, "name": "SYW", "cmt": "CASH,GREENVILLE,TX,US, Frequency:428", "type": "NDB", "navaid_name": "CASH", "navaid_state": "TX", "navaid_country": "US", "navaid_lastupdate": "2012-07-25", "navaid_frequencies": "<navaid:frequency type=\"NAV\" frequency=\"428\" name=\"NAVAID\" ><\/navaid:frequency>", "navaid_magvar": -5.0, "navaid_address": "GREENVILLE" }, "geometry": { "type": "Point", "coordinates": [ -96.067307, 32.98186 ] } },
{ "type": "Feature", "properties": { "magvar": 355.5, "name": "GTH", "cmt": "GUTHRIE,TX,US, Frequency:114.5", "type": "DME", "navaid_name": "GUTHRIE", "navaid_state": "TX", "navaid_country": "US", "navaid_lastupdate": "2023-01-31", "navaid_frequencies": "<navaid:frequency type=\"NAV\" frequency=\"114.5\" name=\"NAVAID\" ><\/navaid:frequency>", "navaid_magvar": -4.55 }, "geometry": { "type": "Point", "coordinates": [ -100.336196, 33.778277 ] } },
{ "type": "Feature", "properties": { "magvar": 353.0, "name": "MNZ", "cmt": "HAMILTON,TX,US, Frequency:251", "type": "NDB", "navaid_name": "HAMILTON", "navaid_state": "TX", "navaid_country": "US", "navaid_lastupdate": "2011-01-12", "navaid_frequencies": "<navaid:frequency type=\"NAV\" frequency=\"251\" name=\"NAVAID\" ><\/navaid:frequency>", "navaid_magvar": -7.0 }, "geometry": { "type": "Point", "coordinates": [ -98.148909, 31.621513 ] } },
{ "type": "Feature", "properties": { "magvar": 355.0, "name": "HRL", "cmt": "HARLINGEN,TX,US, Frequency:113.65", "type": "VOR\/DME", "navaid_name": "HARLINGEN", "navaid_state": "TX", "navaid_country": "US", "navaid_lastupdate": "2021-12-01", "navaid_frequencies": "<navaid:frequency type=\"NAV\" frequency=\"113.65\" name=\"NAVAID\" ><\/navaid:frequency>", "navaid_magvar": -5.0 }, "geometry": { "type": "Point", "coordinates": [ -97.652265, 26.229225 ] } },
{ "type": "Feature", "properties": { "magvar": 355.0, "name": "HR", "cmt": "SEBAS,TX,US, Frequency:338", "type": "NDB", "navaid_name": "SEBAS", "navaid_state": "TX", "navaid_country": "US", "navaid_lastupdate": "2017-11-12", "navaid_frequencies": "<navaid:frequency type=\"NAV\" frequency=\"338\" name=\"NAVAID\" ><\/navaid:frequency>", "navaid_magvar": -5.0 }, "geometry": { "type": "Point", "coordinates": [ -97.657516, 26.305167 ] } },
{ "type": "Feature", "properties": { "magvar": 352.0, "name": "AKL", "cmt": "HASKELL,TX,US, Frequency:407", "type": "NDB", "navaid_name": "HASKELL", "navaid_state": "TX", "navaid_country": "US", "navaid_lastupdate": "2014-04-06", "navaid_frequencies": "<navaid:frequency type=\"NAV\" frequency=\"407\" name=\"NAVAID\" ><\/navaid:frequency>", "navaid_magvar": -8.0 }, "geometry": { "type": "Point", "coordinates": [ -99.720007, 33.191057 ] } },
{ "type": "Feature", "properties": { "magvar": 354.0, "name": "HBV", "cmt": "HEBBRONVILLE,TX,US, Frequency:266", "type": "NDB", "navaid_name": "HEBBRONVILLE", "navaid_state": "TX", "navaid_country": "US", "navaid_lastupdate": "2009-05-10", "navaid_frequencies": "<navaid:frequency type=\"NAV\" frequency=\"266\" name=\"NAVAID\" ><\/navaid:frequency>", "navaid_magvar": -6.0 }, "geometry": { "type": "Point", "coordinates": [ -98.744149, 27.353912 ] } },
{ "type": "Feature", "properties": { "magvar": 357.0, "name": "HNO", "cmt": "HENDERSON,TX,US, Frequency:371", "type": "NDB", "navaid_name": "HENDERSON", "navaid_state": "TX", "navaid_country": "US", "navaid_lastupdate": "2012-02-08", "navaid_frequencies": "<navaid:frequency type=\"NAV\" frequency=\"371\" name=\"NAVAID\" ><\/navaid:frequency>", "navaid_magvar": -3.0 }, "geometry": { "type": "Point", "coordinates": [ -94.861065, 32.187742 ] } },
{ "type": "Feature", "properties": { "magvar": 351.0, "name": "HRX", "cmt": "HEREFORD,TX,US, Frequency:341", "type": "NDB", "navaid_name": "HEREFORD", "navaid_state": "TX", "navaid_country": "US", "navaid_lastupdate": "2011-01-12", "navaid_frequencies": "<navaid:frequency type=\"NAV\" frequency=\"341\" name=\"NAVAID\" ><\/navaid:frequency>", "navaid_magvar": -9.0 }, "geometry": { "type": "Point", "coordinates": [ -102.324345, 34.856889 ] } },
{ "type": "Feature", "properties": { "magvar": 352.0, "name": "HDO", "cmt": "HONDO,TX,US, Frequency:109.40", "type": "VOR\/DME", "navaid_name": "HONDO", "navaid_state": "TX", "navaid_country": "US", "navaid_lastupdate": "2009-12-15", "navaid_frequencies": "<navaid:frequency type=\"NAV\" frequency=\"109.40\" name=\"NAVAID\" ><\/navaid:frequency>", "navaid_magvar": -8.0 }, "geometry": { "type": "Point", "coordinates": [ -99.177899, 29.349124 ] } },
{ "type": "Feature", "properties": { "magvar": 352.0, "name": "HMA", "cmt": "HONDO,TX,US, Frequency:329", "type": "NDB", "navaid_name": "HONDO", "navaid_state": "TX", "navaid_country": "US", "navaid_lastupdate": "2009-12-15", "navaid_frequencies": "<navaid:frequency type=\"NAV\" frequency=\"329\" name=\"NAVAID\" ><\/navaid:frequency>", "navaid_magvar": -8.0 }, "geometry": { "type": "Point", "coordinates": [ -99.172023, 29.373416 ] } },
{ "type": "Feature", "properties": { "magvar": 355.0, "name": "CX", "cmt": "ALIBI,TX,US, Frequency:281", "type": "NDB", "navaid_name": "ALIBI", "navaid_state": "TX", "navaid_country": "US", "navaid_lastupdate": "2017-08-15", "navaid_frequencies": "<navaid:frequency type=\"NAV\" frequency=\"281\" name=\"NAVAID\" ><\/navaid:frequency>", "navaid_magvar": -5.0 }, "geometry": { "type": "Point", "coordinates": [ -95.476266, 30.43208 ] } },
{ "type": "Feature", "properties": { "magvar": 355.0, "name": "DWH", "cmt": "DAVID HOOKS,HOUSTON,TX,US, Frequency:521", "type": "NDB", "navaid_name": "DAVID HOOKS", "navaid_state": "TX", "navaid_country": "US", "navaid_lastupdate": "2009-12-15", "navaid_frequencies": "<navaid:frequency type=\"NAV\" frequency=\"521\" name=\"NAVAID\" ><\/navaid:frequency>", "navaid_magvar": -5.0, "navaid_address": "HOUSTON" }, "geometry": { "type": "Point", "coordinates": [ -95.565864, 30.125533 ] } },
{ "type": "Feature", "properties": { "magvar": 355.0, "name": "EFD", "cmt": "ELLINGTON,HOUSTON,TX,US, Frequency:109.40", "type": "TACAN", "navaid_name": "ELLINGTON", "navaid_state": "TX", "navaid_country": "US", "navaid_lastupdate": "2017-08-15", "navaid_frequencies": "<navaid:frequency type=\"NAV\" frequency=\"109.40\" name=\"NAVAID\" ><\/navaid:frequency>", "navaid_magvar": -5.0, "navaid_address": "HOUSTON" }, "geometry": { "type": "Point", "coordinates": [ -95.159652, 29.605958 ] } },
{ "type": "Feature", "properties": { "magvar": 355.0, "name": "HUB", "cmt": "HOBBY,HOUSTON,TX,US, Frequency:117.10", "type": "VOR\/DME", "navaid_name": "HOBBY", "navaid_state": "TX", "navaid_country": "US", "navaid_lastupdate": "2015-12-11", "navaid_frequencies": "<navaid:frequency type=\"NAV\" frequency=\"117.10\" name=\"NAVAID\" ><\/navaid:frequency>", "navaid_magvar": -5.0, "navaid_address": "HOUSTON" }, "geometry": { "type": "Point", "coordinates": [ -95.27662, 29.655618 ] } },
{ "type": "Feature", "properties": { "magvar": 355.0, "name": "IAH", "cmt": "HUMBLE,HOUSTON,TX,US, Frequency:116.60", "type": "VORTAC", "navaid_name": "HUMBLE", "navaid_state": "TX", "navaid_country": "US", "navaid_lastupdate": "2018-01-30", "navaid_frequencies": "<navaid:frequency type=\"NAV\" frequency=\"116.60\" name=\"NAVAID\" ><\/navaid:frequency>", "navaid_magvar": -5.0, "navaid_address": "HOUSTON" }, "geometry": { "type": "Point", "coordinates": [ -95.345719, 29.956917 ] } },
{ "type": "Feature", "properties": { "magvar": 355.0, "name": "BVP", "cmt": "NIXIN,HOUSTON,TX,US, Frequency:326", "type": "NDB", "navaid_name": "NIXIN", "navaid_state": "TX", "navaid_country": "US", "navaid_lastupdate": "2018-01-30", "navaid_frequencies": "<navaid:frequency type=\"NAV\" frequency=\"326\" name=\"NAVAID\" ><\/navaid:frequency>", "navaid_magvar": -5.0, "navaid_address": "HOUSTON" }, "geometry": { "type": "Point", "coordinates": [ -95.215012, 29.993368 ] } },
{ "type": "Feature", "properties": { "magvar": 354.0, "name": "EYQ", "cmt": "WEISER,HOUSTON,TX,US, Frequency:286", "type": "NDB", "navaid_name": "WEISER", "navaid_state": "TX", "navaid_country": "US", "navaid_lastupdate": "2014-05-30", "navaid_frequencies": "<navaid:frequency type=\"NAV\" frequency=\"286\" name=\"NAVAID\" ><\/navaid:frequency>", "navaid_magvar": -6.0, "navaid_address": "HOUSTON" }, "geometry": { "type": "Point", "coordinates": [ -95.640999, 29.933857 ] } },
{ "type": "Feature", "properties": { "magvar": 348.0, "name": "HUP", "cmt": "HUDSPETH,TX,US, Frequency:115.00", "type": "VORTAC", "navaid_name": "HUDSPETH", "navaid_state": "TX", "navaid_country": "US", "navaid_lastupdate": "2008-08-12", "navaid_frequencies": "<navaid:frequency type=\"NAV\" frequency=\"115.00\" name=\"NAVAID\" ><\/navaid:frequency>", "navaid_magvar": -12.0 }, "geometry": { "type": "Point", "coordinates": [ -105.376319, 31.568702 ] } },
{ "type": "Feature", "properties": { "magvar": 354.0, "name": "UTS", "cmt": "HUNTSVILLE,TX,US, Frequency:308", "type": "NDB", "navaid_name": "HUNTSVILLE", "navaid_state": "TX", "navaid_country": "US", "navaid_lastupdate": "2009-05-10", "navaid_frequencies": "<navaid:frequency type=\"NAV\" frequency=\"308\" name=\"NAVAID\" ><\/navaid:frequency>", "navaid_magvar": -6.0 }, "geometry": { "type": "Point", "coordinates": [ -95.590868, 30.740749 ] } },
{ "type": "Feature", "properties": { "magvar": 352.0, "name": "IDU", "cmt": "INDUSTRY,TX,US, Frequency:110.20", "type": "VORTAC", "navaid_name": "INDUSTRY", "navaid_state": "TX", "navaid_country": "US", "navaid_lastupdate": "2014-05-30", "navaid_frequencies": "<navaid:frequency type=\"NAV\" frequency=\"110.20\" name=\"NAVAID\" ><\/navaid:frequency>", "navaid_magvar": -8.0 }, "geometry": { "type": "Point", "coordinates": [ -96.562194, 29.956058 ] } },
{ "type": "Feature", "properties": { "magvar": 355.0, "name": "JSO", "cmt": "CHEROKEE COUNTY,JACKSONVILLE,TX,US, Frequency:263", "type": "NDB", "navaid_name": "CHEROKEE COUNTY", "navaid_state": "TX", "navaid_country": "US", "navaid_lastupdate": "2011-07-03", "navaid_frequencies": "<navaid:frequency type=\"NAV\" frequency=\"263\" name=\"NAVAID\" ><\/navaid:frequency>", "navaid_magvar": -5.0, "navaid_address": "JACKSONVILLE" }, "geometry": { "type": "Point", "coordinates": [ -95.215501, 31.87017 ] } },
{ "type": "Feature", "properties": { "magvar": 352.0, "name": "JCT", "cmt": "JUNCTION,TX,US, Frequency:116.00", "type": "VORTAC", "navaid_name": "JUNCTION", "navaid_state": "TX", "navaid_country": "US", "navaid_lastupdate": "2012-02-08", "navaid_frequencies": "<navaid:frequency type=\"NAV\" frequency=\"116.00\" name=\"NAVAID\" ><\/navaid:frequency>", "navaid_magvar": -8.0 }, "geometry": { "type": "Point", "coordinates": [ -99.817481, 30.598021 ] } },
{ "type": "Feature", "properties": { "magvar": 352.0, "name": "CSI", "cmt": "CENTER POINT,KERRVILLE,TX,US, Frequency:117.50", "type": "VORTAC", "navaid_name": "CENTER POINT", "navaid_state": "TX", "navaid_country": "US", "navaid_lastupdate": "2013-04-30", "navaid_frequencies": "<navaid:frequency type=\"NAV\" frequency=\"117.50\" name=\"NAVAID\" ><\/navaid:frequency>", "navaid_magvar": -8.0, "navaid_address": "KERRVILLE" }, "geometry": { "type": "Point", "coordinates": [ -99.214486, 29.922354 ] } },
{ "type": "Feature", "properties": { "magvar": 355.0, "name": "IL", "cmt": "IRESH,KILLEEN,TX,US, Frequency:278", "type": "NDB", "navaid_name": "IRESH", "navaid_state": "TX", "navaid_country": "US", "navaid_lastupdate": "2017-08-15", "navaid_frequencies": "<navaid:frequency type=\"NAV\" frequency=\"278\" name=\"NAVAID\" ><\/navaid:frequency>", "navaid_magvar": -5.0, "navaid_address": "KILLEEN" }, "geometry": { "type": "Point", "coordinates": [ -97.708124, 31.024095 ] } },
{ "type": "Feature", "properties": { "magvar": 356.0, "name": "NQI", "cmt": "KINGSVILLE,TX,US, Frequency:117.80", "type": "TACAN", "navaid_name": "KINGSVILLE", "navaid_state": "TX", "navaid_country": "US", "navaid_lastupdate": "2015-01-06", "navaid_frequencies": "<navaid:frequency type=\"NAV\" frequency=\"117.80\" name=\"NAVAID\" ><\/navaid:frequency>", "navaid_magvar": -4.0 }, "geometry": { "type": "Point", "coordinates": [ -97.8056, 27.499238 ] } },
{ "type": "Feature", "properties": { "magvar": 354.0, "name": "TKB", "cmt": "KLEBERG COUNTY,KINGSVILLE,TX,US, Frequency:347", "type": "NDB", "navaid_name": "KLEBERG COUNTY", "navaid_state": "TX", "navaid_country": "US", "navaid_lastupdate": "2010-09-26", "navaid_frequencies": "<navaid:frequency type=\"NAV\" frequency=\"347\" name=\"NAVAID\" ><\/navaid:frequency>", "navaid_magvar": -6.0, "navaid_address": "KINGSVILLE" }, "geometry": { "type": "Point", "coordinates": [ -98.085862, 27.606341 ] } },
{ "type": "Feature", "properties": { "magvar": 356.0, "name": "HRD", "cmt": "HARDIN COUNTY,KOUNTZE SILSBEE,TX,US, Frequency:524", "type": "NDB", "navaid_name": "HARDIN COUNTY", "navaid_state": "TX", "navaid_country": "US", "navaid_lastupdate": "2009-05-10", "navaid_frequencies": "<navaid:frequency type=\"NAV\" frequency=\"524\" name=\"NAVAID\" ><\/navaid:frequency>", "navaid_magvar": -4.0, "navaid_address": "KOUNTZE SILSBEE" }, "geometry": { "type": "Point", "coordinates": [ -94.260357, 30.336324 ] } },
{ "type": "Feature", "properties": { "magvar": 358.2, "name": "AAAXX", "cmt": "AAAXX,TX,US", "type": "WAYPOINT", "navaid_name": "AAAXX", "navaid_state": "TX", "navaid_country": "US", "navaid_lastupdate": "2023-02-23", "navaid_magvar": -1.82 }, "geometry": { "type": "Point", "coordinates": [ -95.392472, 29.895706 ] } },
{ "type": "Feature", "properties": { "magvar": 357.9, "name": "AAHZZ", "cmt": "AAHZZ,TX,US", "type": "WAYPOINT", "navaid_name": "AAHZZ", "navaid_state": "TX", "navaid_country": "US", "navaid_lastupdate": "2023-02-23", "navaid_magvar": -2.13 }, "geometry": { "type": "Point", "coordinates": [ -95.931664, 29.730928 ] } },
{ "type": "Feature", "properties": { "magvar": 357.0, "name": "ACADO", "cmt": "ACADO,TX,US", "type": "WAYPOINT", "navaid_name": "ACADO", "navaid_state": "TX", "navaid_country": "US", "navaid_lastupdate": "2023-01-31", "navaid_magvar": -3.01 }, "geometry": { "type": "Point", "coordinates": [ -97.606081, 32.667631 ] } },
{ "type": "Feature", "properties": { "magvar": 358.0, "name": "ACECI", "cmt": "ACECI,TX,US", "type": "WAYPOINT", "navaid_name": "ACECI", "navaid_state": "TX", "navaid_country": "US", "navaid_lastupdate": "2023-02-23", "navaid_magvar": -2.05 }, "geometry": { "type": "Point", "coordinates": [ -95.804994, 30.011306 ] } },
{ "type": "Feature", "properties": { "magvar": 356.7, "name": "ACGET", "cmt": "ACGET,TX,US", "type": "WAYPOINT", "navaid_name": "ACGET", "navaid_state": "TX", "navaid_country": "US", "navaid_lastupdate": "2023-02-23", "navaid_magvar": -3.33 }, "geometry": { "type": "Point", "coordinates": [ -98.090297, 29.867994 ] } },
{ "type": "Feature", "properties": { "magvar": 358.1, "name": "ACIVU", "cmt": "ACIVU,TX,US", "type": "WAYPOINT", "navaid_name": "ACIVU", "navaid_state": "TX", "navaid_country": "US", "navaid_lastupdate": "2023-01-31", "navaid_magvar": -1.98 }, "geometry": { "type": "Point", "coordinates": [ -95.586842, 28.925978 ] } },
{ "type": "Feature", "properties": { "magvar": 358.1, "name": "ACKLE", "cmt": "ACKLE,TX,US", "type": "WAYPOINT", "navaid_name": "ACKLE", "navaid_state": "TX", "navaid_country": "US", "navaid_lastupdate": "2023-02-23", "navaid_magvar": -1.9 }, "geometry": { "type": "Point", "coordinates": [ -95.461839, 28.924742 ] } },
{ "type": "Feature", "properties": { "magvar": 357.0, "name": "ACKME", "cmt": "ACKME,TX,US", "type": "REP-PT", "navaid_name": "ACKME", "navaid_state": "TX", "navaid_country": "US", "navaid_lastupdate": "2023-02-23", "navaid_magvar": -3.02, "navaid_fix_defn": "<navaid:fix navaid=\"UKW\" type=\"VORTAC\" radial=\"15\" distance=\"20\" ><\/navaid:fix><navaid:fix navaid=\"SPS\" type=\"VORTAC\" radial=\"90\" distance=\"46\" ><\/navaid:fix>" }, "geometry": { "type": "Point", "coordinates": [ -97.677853, 33.847567 ] } },
{ "type": "Feature", "properties": { "magvar": 356.5, "name": "ACLIN", "cmt": "ACLIN,TX,US", "type": "MIL-REP-PT", "navaid_name": "ACLIN", "navaid_state": "TX", "navaid_country": "US", "navaid_lastupdate": "2023-02-23", "navaid_magvar": -3.56, "navaid_fix_defn": "<navaid:fix navaid=\"KSY\" type=\"TACAN\" radial=\"152\" distance=\"8\" ><\/navaid:fix><navaid:fix navaid=\"SAT\" type=\"VORTAC\" radial=\"176\" distance=\"28\" ><\/navaid:fix>" }, "geometry": { "type": "Point", "coordinates": [ -98.499869, 29.182308 ] } },
{ "type": "Feature", "properties": { "magvar": 358.1, "name": "ACOLA", "cmt": "ACOLA,TX,US", "type": "WAYPOINT", "navaid_name": "ACOLA", "navaid_state": "TX", "navaid_country": "US", "navaid_lastupdate": "2023-02-23", "navaid_magvar": -1.9, "navaid_fix_defn": "<navaid:fix navaid=\"HUB\" type=\"VOR\/DME\" radial=\"221\" distance=\"17\" ><\/navaid:fix><navaid:fix navaid=\"VUH\" type=\"VOR\/DME\" radial=\"283\" distance=\"35\" ><\/navaid:fix>" }, "geometry": { "type": "Point", "coordinates": [ -95.505117, 29.459883 ] } },
{ "type": "Feature", "properties": { "magvar": 357.7, "name": "ACONU", "cmt": "ACONU,TX,US", "type": "MIL-REP-PT", "navaid_name": "ACONU", "navaid_state": "TX", "navaid_country": "US", "navaid_lastupdate": "2023-01-31", "navaid_magvar": -2.37, "navaid_fix_defn": "<navaid:fix navaid=\"PSX\" type=\"VORTAC\" radial=\"120\" distance=\"3\" ><\/navaid:fix>" }, "geometry": { "type": "Point", "coordinates": [ -96.268814, 28.738681 ] } },
{ "type": "Feature", "properties": { "magvar": 356.2, "name": "ACTED", "cmt": "ACTED,TX,US", "type": "WAYPOINT", "navaid_name": "ACTED", "navaid_state": "TX", "navaid_country": "US", "navaid_lastupdate": "2023-02-23", "navaid_magvar": -3.81 }, "geometry": { "type": "Point", "coordinates": [ -99.021394, 32.557222 ] } },
{ "type": "Feature", "properties": { "magvar": 357.6, "name": "ACUFF", "cmt": "ACUFF,TX,US", "type": "REP-PT", "navaid_name": "ACUFF", "navaid_state": "TX", "navaid_country": "US", "navaid_lastupdate": "2023-01-31", "navaid_magvar": -2.44, "navaid_fix_defn": "<navaid:fix navaid=\"CVE\" type=\"VOR\/DME\" radial=\"155\" ><\/navaid:fix><navaid:fix navaid=\"CQY\" type=\"VORTAC\" radial=\"263\" distance=\"20\" ><\/navaid:fix>" }, "geometry": { "type": "Point", "coordinates": [ -96.610842, 32.181506 ] } },
{ "type": "Feature", "properties": { "magvar": 357.1, "name": "ACUXA", "cmt": "ACUXA,TX,US", "type": "MIL-REP-PT", "navaid_name": "ACUXA", "navaid_state": "TX", "navaid_country": "US", "navaid_lastupdate": "2023-02-23", "navaid_magvar": -2.97, "navaid_fix_defn": "<navaid:fix navaid=\"NGP\" type=\"TACAN\" radial=\"327\" distance=\"1\" ><\/navaid:fix>" }, "geometry": { "type": "Point", "coordinates": [ -97.307889, 27.706539 ] } },
{ "type": "Feature", "properties": { "magvar": 357.0, "name": "ACVEK", "cmt": "ACVEK,TX,US", "type": "WAYPOINT", "navaid_name": "ACVEK", "navaid_state": "TX", "navaid_country": "US", "navaid_lastupdate": "2023-02-23", "navaid_magvar": -3.09 }, "geometry": { "type": "Point", "coordinates": [ -97.685275, 30.583031 ] } },
{ "type": "Feature", "properties": { "magvar": 357.1, "name": "ACVIK", "cmt": "ACVIK,TX,US", "type": "MIL-REP-PT", "navaid_name": "ACVIK", "navaid_state": "TX", "navaid_country": "US", "navaid_lastupdate": "2023-02-23", "navaid_magvar": -2.96, "navaid_fix_defn": "<navaid:fix navaid=\"NGP\" type=\"TACAN\" radial=\"147\" distance=\"1\" ><\/navaid:fix>" }, "geometry": { "type": "Point", "coordinates": [ -97.289114, 27.677594 ] } },
{ "type": "Feature", "properties": { "magvar": 357.1, "name": "ADAXY", "cmt": "ADAXY,TX,US", "type": "WAYPOINT", "navaid_name": "ADAXY", "navaid_state": "TX", "navaid_country": "US", "navaid_lastupdate": "2023-02-23", "navaid_magvar": -2.98 }, "geometry": { "type": "Point", "coordinates": [ -97.554519, 32.377425 ] } },
{ "type": "Feature", "properties": { "magvar": 356.8, "name": "ADDED", "cmt": "ADDED,TX,US", "type": "WAYPOINT", "navaid_name": "ADDED", "navaid_state": "TX", "navaid_country": "US", "navaid_lastupdate": "2023-02-23", "navaid_magvar": -3.21 }, "geometry": { "type": "Point", "coordinates": [ -97.883319, 30.344878 ] } },
{ "type": "Feature", "properties": { "magvar": 355.9, "name": "ADDIL", "cmt": "ADDIL,TX,US", "type": "WAYPOINT", "navaid_name": "ADDIL", "navaid_state": "TX", "navaid_country": "US", "navaid_lastupdate": "2023-02-23", "navaid_magvar": -4.18 }, "geometry": { "type": "Point", "coordinates": [ -99.682683, 28.401917 ] } },
{ "type": "Feature", "properties": { "magvar": 357.5, "name": "ADDIS", "cmt": "ADDIS,TX,US", "type": "REP-PT", "navaid_name": "ADDIS", "navaid_state": "TX", "navaid_country": "US", "navaid_lastupdate": "2023-02-23", "navaid_magvar": -2.51, "navaid_fix_defn": "<navaid:fix navaid=\"TBQ\" type=\"ILS\/DME\" distance=\"10\" ><\/navaid:fix><navaid:fix navaid=\"CVE\" type=\"VOR\/DME\" radial=\"121\" ><\/navaid:fix>" }, "geometry": { "type": "Point", "coordinates": [ -96.763867, 32.802022 ] } },
{ "type": "Feature", "properties": { "magvar": 357.8, "name": "ADDVL", "cmt": "ADDVL,TX,US", "type": "REP-PT", "navaid_name": "ADDVL", "navaid_state": "TX", "navaid_country": "US", "navaid_lastupdate": "2023-02-23", "navaid_magvar": -2.25, "navaid_fix_defn": "<navaid:fix navaid=\"TTT\" type=\"VOR\/DME\" radial=\"42\" distance=\"46\" ><\/navaid:fix><navaid:fix navaid=\"ADM\" type=\"VORTAC\" radial=\"135\" ><\/navaid:fix>" }, "geometry": { "type": "Point", "coordinates": [ -96.361231, 33.371758 ] } },
{ "type": "Feature", "properties": { "magvar": 357.5, "name": "ADEMS", "cmt": "ADEMS,TX,US", "type": "REP-PT", "navaid_name": "ADEMS", "navaid_state": "TX", "navaid_country": "US", "navaid_lastupdate": "2023-02-23", "navaid_magvar": -2.51, "navaid_fix_defn": "<navaid:fix navaid=\"FUZ\" type=\"VORTAC\" radial=\"134\" distance=\"34\" ><\/navaid:fix><navaid:fix navaid=\"ACT\" type=\"VORTAC\" radial=\"20\" ><\/navaid:fix>" }, "geometry": { "type": "Point", "coordinates": [ -96.748958, 32.45375 ] } },
{ "type": "Feature", "properties": { "magvar": 354.8, "name": "ADIPY", "cmt": "ADIPY,TX,US", "type": "WAYPOINT", "navaid_name": "ADIPY", "navaid_state": "TX", "navaid_country": "US", "navaid_lastupdate": "2023-02-23", "navaid_magvar": -5.2 }, "geometry": { "type": "Point", "coordinates": [ -101.626858, 32.022356 ] } },
{ "type": "Feature", "properties": { "magvar": 356.2, "name": "ADLIW", "cmt": "ADLIW,TX,US", "type": "WAYPOINT", "navaid_name": "ADLIW", "navaid_state": "TX", "navaid_country": "US", "navaid_lastupdate": "2023-02-23", "navaid_magvar": -3.83 }, "geometry": { "type": "Point", "coordinates": [ -99.013089, 28.952983 ] } },
{ "type": "Feature", "properties": { "magvar": 354.4, "name": "ADORY", "cmt": "ADORY,TX,US", "type": "WAYPOINT", "navaid_name": "ADORY", "navaid_state": "TX", "navaid_country": "US", "navaid_lastupdate": "2023-01-31", "navaid_magvar": -5.63 }, "geometry": { "type": "Point", "coordinates": [ -102.375819, 33.454853 ] } },
{ "type": "Feature", "properties": { "magvar": 356.1, "name": "ADYTA", "cmt": "ADYTA,TX,US", "type": "WAYPOINT", "navaid_name": "ADYTA", "navaid_state": "TX", "navaid_country": "US", "navaid_lastupdate": "2023-02-23", "navaid_magvar": -3.92 }, "geometry": { "type": "Point", "coordinates": [ -99.176894, 28.420633 ] } },
{ "type": "Feature", "properties": { "magvar": 356.3, "name": "AEROZ", "cmt": "AEROZ,TX,US", "type": "WAYPOINT", "navaid_name": "AEROZ", "navaid_state": "TX", "navaid_country": "US", "navaid_lastupdate": "2023-02-23", "navaid_magvar": -3.74 }, "geometry": { "type": "Point", "coordinates": [ -98.863639, 30.703744 ] } },
{ "type": "Feature", "properties": { "magvar": 354.0, "name": "AFBUL", "cmt": "AFBUL,TX,US", "type": "WAYPOINT", "navaid_name": "AFBUL", "navaid_state": "TX", "navaid_country": "US", "navaid_lastupdate": "2023-02-23", "navaid_magvar": -6.01 }, "geometry": { "type": "Point", "coordinates": [ -103.275553, 31.853111 ] } },
{ "type": "Feature", "properties": { "magvar": 354.1, "name": "AFITY", "cmt": "AFITY,TX,US", "type": "WAYPOINT", "navaid_name": "AFITY", "navaid_state": "TX", "navaid_country": "US", "navaid_lastupdate": "2023-01-31", "navaid_magvar": -5.94 }, "geometry": { "type": "Point", "coordinates": [ -103.133347, 31.705942 ] } },
{ "type": "Feature", "properties": { "magvar": 354.6, "name": "AFRIT", "cmt": "AFRIT,TX,US", "type": "REP-PT", "navaid_name": "AFRIT", "navaid_state": "TX", "navaid_country": "US", "navaid_lastupdate": "2023-02-23", "navaid_magvar": -5.43, "navaid_fix_defn": "<navaid:fix navaid=\"PNH\" type=\"VORTAC\" radial=\"247\" distance=\"11\" ><\/navaid:fix>" }, "geometry": { "type": "Point", "coordinates": [ -101.914553, 35.1858 ] } },
{ "type": "Feature", "properties": { "magvar": 358.7, "name": "AFRUH", "cmt": "AFRUH,TX,US", "type": "REP-PT", "navaid_name": "AFRUH", "navaid_state": "TX", "navaid_country": "US", "navaid_lastupdate": "2023-02-23", "navaid_magvar": -1.34, "navaid_fix_defn": "<navaid:fix navaid=\"LFK\" type=\"VORTAC\" radial=\"354\" distance=\"17\" ><\/navaid:fix>" }, "geometry": { "type": "Point", "coordinates": [ -94.724972, 31.443556 ] } },
{ "type": "Feature", "properties": { "magvar": 358.4, "name": "AFUWA", "cmt": "AFUWA,TX,US", "type": "WAYPOINT", "navaid_name": "AFUWA", "navaid_state": "TX", "navaid_country": "US", "navaid_lastupdate": "2023-01-31", "navaid_magvar": -1.69 }, "geometry": { "type": "Point", "coordinates": [ -95.120239, 29.392633 ] } },
{ "type": "Feature", "properties": { "magvar": 356.8, "name": "AGAIN", "cmt": "AGAIN,TX,US", "type": "WAYPOINT", "navaid_name": "AGAIN", "navaid_state": "TX", "navaid_country": "US", "navaid_lastupdate": "2023-01-31", "navaid_magvar": -3.24 }, "geometry": { "type": "Point", "coordinates": [ -97.974447, 31.623214 ] } },
{ "type": "Feature", "properties": { "magvar": 357.9, "name": "AGAXE", "cmt": "AGAXE,TX,US", "type": "WAYPOINT", "navaid_name": "AGAXE", "navaid_state": "TX", "navaid_country": "US", "navaid_lastupdate": "2023-02-23", "navaid_magvar": -2.11 }, "geometry": { "type": "Point", "coordinates": [ -95.898567, 29.850411 ] } },
{ "type": "Feature", "properties": { "magvar": 353.7, "name": "AGAZY", "cmt": "AGAZY,TX,US", "type": "REP-PT", "navaid_name": "AGAZY", "navaid_state": "TX", "navaid_country": "US", "navaid_lastupdate": "2023-02-23", "navaid_magvar": -6.38, "navaid_fix_defn": "<navaid:fix navaid=\"FST\" type=\"VORTAC\" radial=\"273\" distance=\"62\" ><\/navaid:fix><navaid:fix navaid=\"HUP\" type=\"VORTAC\" radial=\"97\" distance=\"68\" ><\/navaid:fix><navaid:fix navaid=\"PEQ\" type=\"VOR\/DME\" radial=\"230\" distance=\"33\" ><\/navaid:fix>" }, "geometry": { "type": "Point", "coordinates": [ -104.13615, 31.195614 ] } },
{ "type": "Feature", "properties": { "magvar": 358.5, "name": "AGEVE", "cmt": "AGEVE,TX,US", "type": "WAYPOINT", "navaid_name": "AGEVE", "navaid_state": "TX", "navaid_country": "US", "navaid_lastupdate": "2023-01-31", "navaid_magvar": -1.52 }, "geometry": { "type": "Point", "coordinates": [ -94.939383, 30.627681 ] } },
{ "type": "Feature", "properties": { "magvar": 357.9, "name": "AGGEE", "cmt": "AGGEE,TX,US", "type": "WAYPOINT", "navaid_name": "AGGEE", "navaid_state": "TX", "navaid_country": "US", "navaid_lastupdate": "2023-02-23", "navaid_magvar": -2.16 }, "geometry": { "type": "Point", "coordinates": [ -96.016161, 30.328667 ] } },
{ "type": "Feature", "properties": { "magvar": 352.7, "name": "AGOPE", "cmt": "AGOPE,TX,US", "type": "WAYPOINT", "navaid_name": "AGOPE", "navaid_state": "TX", "navaid_country": "US", "navaid_lastupdate": "2023-02-23", "navaid_magvar": -7.31 }, "geometry": { "type": "Point", "coordinates": [ -106.174006, 31.761917 ] } },
{ "type": "Feature", "properties": { "magvar": 354.0, "name": "AHASS", "cmt": "AHASS,TX,US", "type": "WAYPOINT", "navaid_name": "AHASS", "navaid_state": "TX", "navaid_country": "US", "navaid_lastupdate": "2023-02-23", "navaid_magvar": -6.05 }, "geometry": { "type": "Point", "coordinates": [ -103.350883, 31.930814 ] } },
{ "type": "Feature", "properties": { "magvar": 357.7, "name": "AHESU", "cmt": "AHESU,TX,US", "type": "WAYPOINT", "navaid_name": "AHESU", "navaid_state": "TX", "navaid_country": "US", "navaid_lastupdate": "2023-02-23", "navaid_magvar": -2.38 }, "geometry": { "type": "Point", "coordinates": [ -96.343214, 29.378803 ] } },
{ "type": "Feature", "properties": { "magvar": 357.1, "name": "AHLAB", "cmt": "AHLAB,TX,US", "type": "MIL-REP-PT", "navaid_name": "AHLAB", "navaid_state": "TX", "navaid_country": "US", "navaid_lastupdate": "2023-02-23", "navaid_magvar": -2.96, "navaid_fix_defn": "<navaid:fix navaid=\"NGP\" type=\"TACAN\" radial=\"12\" distance=\"1\" ><\/navaid:fix>" }, "geometry": { "type": "Point", "coordinates": [ -97.288425, 27.707264 ] } },
{ "type": "Feature", "properties": { "magvar": 358.6, "name": "AHOTO", "cmt": "AHOTO,TX,US", "type": "WAYPOINT", "navaid_name": "AHOTO", "navaid_state": "TX", "navaid_country": "US", "navaid_lastupdate": "2023-02-23", "navaid_magvar": -1.4 }, "geometry": { "type": "Point", "coordinates": [ -94.894111, 32.345917 ] } },
{ "type": "Feature", "properties": { "magvar": 356.9, "name": "AHUGE", "cmt": "AHUGE,TX,US", "type": "MIL-WAYPOINT", "navaid_name": "AHUGE", "navaid_state": "TX", "navaid_country": "US", "navaid_lastupdate": "2023-02-23", "navaid_magvar": -3.12 }, "geometry": { "type": "Point", "coordinates": [ -97.658483, 28.8111 ] } },